[{"page":1,"pages":1,"per_page":"300","total":256},[{"id":"ABW","isoCode":"AW","name":"Aruba","region":{"id":"LCN","value":"Latin America & Caribbean (all income levels)"},"adminregion":{"id":"","value":""},"incomeLevel":{"id":"NOC","value":"High income: nonOECD"},"lendingType":{"id":"LNX","value":"Not classified"},"capitalCity":"Oranjestad","longitude":"-70.0167","latitude":"12.5167"},{"id":"AFG","isoCode":"AF","name":"Afghanistan","region":{"id":"SAS","value":"South Asia"},"adminregion":{"id":"SAS","value":"South Asia"},"incomeLevel":{"id":"LIC","value":"Low income"},"lendingType":{"id":"IDX","value":"IDA"},"capitalCity":"Kabul","longitude":"69.1761","latitude":"34.5228"},{"id":"AFR","isoCode":"A9","name":"Africa","region":{"id":"NA","value":"Aggregates"},"adminregion":{"id":"","value":""},"incomeLevel":{"id":"NA","value":"Aggregates"},"lendingType":{"id":"","value":"Aggregates"},"capitalCity":"","longitude":"","latitude":""},{"id":"AGO","isoCode":"AO","name":"Angola","region":{"id":"SSF","value":"Sub-Saharan Africa (all income levels)"},"adminregion":{"id":"SSA","value":"Sub-Saharan Africa (developing only)"},"incomeLevel":{"id":"UMC","value":"Upper middle income"},"lendingType":{"id":"IDB","value":"Blend"},"capitalCity":"Luanda","longitude":"13.242","latitude":"-8.81155"},{"id":"ALB","isoCode":"AL","name":"Albania","region":{"id":"ECS","value":"Europe & Central Asia (all income levels)"},"adminregion":{"id":"ECA","value":"Europe & Central Asia (developing only)"},"incomeLevel":{"id":"UMC","value":"Upper middle income"},"lendingType":{"id":"IBD","value":"IBRD"},"capitalCity":"Tirane","longitude":"19.8172","latitude":"41.3317"},{"id":"AND","isoCode":"AD","name":"Andorra","region":{"id":"ECS","value":"Europe & Central Asia (all income levels)"},"adminregion":{"id":"","value":""},"incomeLevel":{"id":"NOC","value":"High income: nonOECD"},"lendingType":{"id":"LNX","value":"Not classified"},"capitalCity":"Andorra la Vella","longitude":"1.5218","latitude":"42.5075"},{"id":"ARB","isoCode":"1A","name":"Arab World","region":{"id":"NA","value":"Aggregates"},"adminregion":{"id":"","value":""},"incomeLevel":{"id":"NA","value":"Aggregates"},"lendingType":{"id":"","value":"Aggregates"},"capitalCity":"","longitude":"","latitude":""},{"id":"ARE","isoCode":"AE","name":"United Arab Emirates","region":{"id":"MEA","value":"Middle East & North Africa (all income levels)"},"adminregion":{"id":"","value":""},"incomeLevel":{"id":"NOC","value":"High income: nonOECD"},"lendingType":{"id":"LNX","value":"Not classified"},"capitalCity":"Abu Dhabi","longitude":"54.3705","latitude":"24.4764"},{"id":"ARG","isoCode":"AR","name":"Argentina","region":{"id":"LCN","value":"Latin America & Caribbean (all income levels)"},"adminregion":{"id":"LAC","value":"Latin America & Caribbean (developing only)"},"incomeLevel":{"id":"UMC","value":"Upper middle income"},"lendingType":{"id":"IBD","value":"IBRD"},"capitalCity":"Buenos Aires","longitude":"-58.4173","latitude":"-34.6118"},{"id":"ARM","isoCode":"AM","name":"Armenia","region":{"id":"ECS","value":"Europe & Central Asia (all income levels)"},"adminregion":{"id":"ECA","value":"Europe & Central Asia (developing only)"},"incomeLevel":{"id":"LMC","value":"Lower middle income"},"lendingType":{"id":"IDB","value":"Blend"},"capitalCity":"Yerevan","longitude":"44.509","latitude":"40.1596"},{"id":"ASM","isoCode":"AS","name":"American Samoa","region":{"id":"EAS","value":"East Asia & Pacific (all income levels)"},"adminregion":{"id":"EAP","value":"East Asia & Pacific (developing only)"},"incomeLevel":{"id":"UMC","value":"Upper middle income"},"lendingType":{"id":"LNX","value":"Not classified"},"capitalCity":"Pago Pago","longitude":"-170.691","latitude":"-14.2846"},{"id":"ATG","isoCode":"AG","name":"Antigua and Barbuda","region":{"id":"LCN","value":"Latin America & Caribbean (all income levels)"},"adminregion":{"id":"","value":""},"incomeLevel":{"id":"NOC","value":"High income: nonOECD"},"lendingType":{"id":"IBD","value":"IBRD"},"capitalCity":"Saint John's","longitude":"-61.8456","latitude":"17.1175"},{"id":"AUS","isoCode":"AU","name":"Australia","region":{"id":"EAS","value":"East Asia & Pacific (all income levels)"},"adminregion":{"id":"","value":""},"incomeLevel":{"id":"OEC","value":"High income: OECD"},"lendingType":{"id":"LNX","value":"Not classified"},"capitalCity":"Canberra","longitude":"149.129","latitude":"-35.282"},{"id":"AUT","isoCode":"AT","name":"Austria","region":{"id":"ECS","value":"Europe & Central Asia (all income levels)"},"adminregion":{"id":"","value":""},"incomeLevel":{"id":"OEC","value":"High income: OECD"},"lendingType":{"id":"LNX","value":"Not classified"},"capitalCity":"Vienna","longitude":"16.3798","latitude":"48.2201"},{"id":"AZE","isoCode":"AZ","name":"Azerbaijan","region":{"id":"ECS","value":"Europe & Central Asia (all income levels)"},"adminregion":{"id":"ECA","value":"Europe & Central Asia (developing only)"},"incomeLevel":{"id":"UMC","value":"Upper middle income"},"lendingType":{"id":"IBD","value":"IBRD"},"capitalCity":"Baku","longitude":"49.8932","latitude":"40.3834"},{"id":"BDI","isoCode":"BI","name":"Burundi","region":{"id":"SSF","value":"Sub-Saharan Africa (all income levels)"},"adminregion":{"id":"SSA","value":"Sub-Saharan Africa (developing only)"},"incomeLevel":{"id":"LIC","value":"Low income"},"lendingType":{"id":"IDX","value":"IDA"},"capitalCity":"Bujumbura","longitude":"29.3639","latitude":"-3.3784"},{"id":"BEL","isoCode":"BE","name":"Belgium","region":{"id":"ECS","value":"Europe & Central Asia (all income levels)"},"adminregion":{"id":"","value":""},"incomeLevel":{"id":"OEC","value":"High income: OECD"},"lendingType":{"id":"LNX","value":"Not classified"},"capitalCity":"Brussels","longitude":"4.36761","latitude":"50.8371"},{"id":"BEN","isoCode":"BJ","name":"Benin","region":{"id":"SSF","value":"Sub-Saharan Africa (all income levels)"},"adminregion":{"id":"SSA","value":"Sub-Saharan Africa (developing only)"},"incomeLevel":{"id":"LIC","value":"Low income"},"lendingType":{"id":"IDX","value":"IDA"},"capitalCity":"Porto-Novo","longitude":"2.6323","latitude":"6.4779"},{"id":"BFA","isoCode":"BF","name":"Burkina Faso","region":{"id":"SSF","value":"Sub-Saharan Africa (all income levels)"},"adminregion":{"id":"SSA","value":"Sub-Saharan Africa (developing only)"},"incomeLevel":{"id":"LIC","value":"Low income"},"lendingType":{"id":"IDX","value":"IDA"},"capitalCity":"Ouagadougou","longitude":"-1.53395","latitude":"12.3605"},{"id":"BGD","isoCode":"BD","name":"Bangladesh","region":{"id":"SAS","value":"South Asia"},"adminregion":{"id":"SAS","value":"South Asia"},"incomeLevel":{"id":"LIC","value":"Low income"},"lendingType":{"id":"IDX","value":"IDA"},"capitalCity":"Dhaka","longitude":"90.4113","latitude":"23.7055"},{"id":"BGR","isoCode":"BG","name":"Bulgaria","region":{"id":"ECS","value":"Europe & Central Asia (all income levels)"},"adminregion":{"id":"ECA","value":"Europe & Central Asia (developing only)"},"incomeLevel":{"id":"UMC","value":"Upper middle income"},"lendingType":{"id":"IBD","value":"IBRD"},"capitalCity":"Sofia","longitude":"23.3238","latitude":"42.7105"},{"id":"BHR","isoCode":"BH","name":"Bahrain","region":{"id":"MEA","value":"Middle East & North Africa (all income levels)"},"adminregion":{"id":"","value":""},"incomeLevel":{"id":"NOC","value":"High income: nonOECD"},"lendingType":{"id":"LNX","value":"Not classified"},"capitalCity":"Manama","longitude":"50.5354","latitude":"26.1921"},{"id":"BHS","isoCode":"BS","name":"Bahamas, The","region":{"id":"LCN","value":"Latin America & Caribbean (all income levels)"},"adminregion":{"id":"","value":""},"incomeLevel":{"id":"NOC","value":"High income: nonOECD"},"lendingType":{"id":"LNX","value":"Not classified"},"capitalCity":"Nassau","longitude":"-77.339","latitude":"25.0661"},{"id":"BIH","isoCode":"BA","name":"Bosnia and Herzegovina","region":{"id":"ECS","value":"Europe & Central Asia (all income levels)"},"adminregion":{"id":"ECA","value":"Europe & Central Asia (developing only)"},"incomeLevel":{"id":"UMC","value":"Upper middle income"},"lendingType":{"id":"IDB","value":"Blend"},"capitalCity":"Sarajevo","longitude":"18.4214","latitude":"43.8607"},{"id":"BLR","isoCode":"BY","name":"Belarus","region":{"id":"ECS","value":"Europe & Central Asia (all income levels)"},"adminregion":{"id":"ECA","value":"Europe & Central Asia (developing only)"},"incomeLevel":{"id":"UMC","value":"Upper middle income"},"lendingType":{"id":"IBD","value":"IBRD"},"capitalCity":"Minsk","longitude":"27.5766","latitude":"53.9678"},{"id":"BLZ","isoCode":"BZ","name":"Belize","region":{"id":"LCN","value":"Latin America & Caribbean (all income levels)"},"adminregion":{"id":"LAC","value":"Latin America & Caribbean (developing only)"},"incomeLevel":{"id":"UMC","value":"Upper middle income"},"lendingType":{"id":"IBD","value":"IBRD"},"capitalCity":"Belmopan","longitude":"-88.7713","latitude":"17.2534"},{"id":"BMU","isoCode":"BM","name":"Bermuda","region":{"id":"NAC","value":"North America"},"adminregion":{"id":"","value":""},"incomeLevel":{"id":"NOC","value":"High income: nonOECD"},"lendingType":{"id":"LNX","value":"Not classified"},"capitalCity":"Hamilton","longitude":"-64.706","latitude":"32.3293"},{"id":"BOL","isoCode":"BO","name":"Bolivia","region":{"id":"LCN","value":"Latin America & Caribbean (all income levels)"},"adminregion":{"id":"LAC","value":"Latin America & Caribbean (developing only)"},"incomeLevel":{"id":"LMC","value":"Lower middle income"},"lendingType":{"id":"IDB","value":"Blend"},"capitalCity":"La Paz","longitude":"-66.1936","latitude":"-13.9908"},{"id":"BRA","isoCode":"BR","name":"Brazil","region":{"id":"LCN","value":"Latin America & Caribbean (all income levels)"},"adminregion":{"id":"LAC","value":"Latin America & Caribbean (developing only)"},"incomeLevel":{"id":"UMC","value":"Upper middle income"},"lendingType":{"id":"IBD","value":"IBRD"},"capitalCity":"Brasilia","longitude":"-47.9292","latitude":"-15.7801"},{"id":"BRB","isoCode":"BB","name":"Barbados","region":{"id":"LCN","value":"Latin America & Caribbean (all income levels)"},"adminregion":{"id":"","value":""},"incomeLevel":{"id":"NOC","value":"High income: nonOECD"},"lendingType":{"id":"LNX","value":"Not classified"},"capitalCity":"Bridgetown","longitude":"-59.6105","latitude":"13.0935"},{"id":"BRN","isoCode":"BN","name":"Brunei Darussalam","region":{"id":"EAS","value":"East Asia & Pacific (all income levels)"},"adminregion":{"id":"","value":""},"incomeLevel":{"id":"NOC","value":"High income: nonOECD"},"lendingType":{"id":"LNX","value":"Not classified"},"capitalCity":"Bandar Seri Begawan","longitude":"114.946","latitude":"4.94199"},{"id":"BTN","isoCode":"BT","name":"Bhutan","region":{"id":"SAS","value":"South Asia"},"adminregion":{"id":"SAS","value":"South Asia"},"incomeLevel":{"id":"LMC","value":"Lower middle income"},"lendingType":{"id":"IDX","value":"IDA"},"capitalCity":"Thimphu","longitude":"89.6177","latitude":"27.5768"},{"id":"BWA","isoCode":"BW","name":"Botswana","region":{"id":"SSF","value":"Sub-Saharan Africa (all income levels)"},"adminregion":{"id":"SSA","value":"Sub-Saharan Africa (developing only)"},"incomeLevel":{"id":"UMC","value":"Upper middle income"},"lendingType":{"id":"IBD","value":"IBRD"},"capitalCity":"Gaborone","longitude":"25.9201","latitude":"-24.6544"},{"id":"CAA","isoCode":"C9","name":"Sub-Saharan Africa (IFC classification)","region":{"id":"NA","value":"Aggregates"},"adminregion":{"id":"","value":""},"incomeLevel":{"id":"NA","value":"Aggregates"},"lendingType":{"id":"","value":"Aggregates"},"capitalCity":"","longitude":"","latitude":""},{"id":"CAF","isoCode":"CF","name":"Central African Republic","region":{"id":"SSF","value":"Sub-Saharan Africa (all income levels)"},"adminregion":{"id":"SSA","value":"Sub-Saharan Africa (developing only)"},"incomeLevel":{"id":"LIC","value":"Low income"},"lendingType":{"id":"IDX","value":"IDA"},"capitalCity":"Bangui","longitude":"21.6407","latitude":"5.63056"},{"id":"CAN","isoCode":"CA","name":"Canada","region":{"id":"NAC","value":"North America"},"adminregion":{"id":"","value":""},"incomeLevel":{"id":"OEC","value":"High income: OECD"},"lendingType":{"id":"LNX","value":"Not classified"},"capitalCity":"Ottawa","longitude":"-75.6919","latitude":"45.4215"},{"id":"CEA","isoCode":"C4","name":"East Asia and the Pacific (IFC classification)","region":{"id":"NA","value":"Aggregates"},"adminregion":{"id":"","value":""},"incomeLevel":{"id":"NA","value":"Aggregates"},"lendingType":{"id":"","value":"Aggregates"},"capitalCity":"","longitude":"","latitude":""},{"id":"CEU","isoCode":"C5","name":"Europe and Central Asia (IFC classification)","region":{"id":"NA","value":"Aggregates"},"adminregion":{"id":"","value":""},"incomeLevel":{"id":"NA","value":"Aggregates"},"lendingType":{"id":"","value":"Aggregates"},"capitalCity":"","longitude":"","latitude":""},{"id":"CHE","isoCode":"CH","name":"Switzerland","region":{"id":"ECS","value":"Europe & Central Asia (all income levels)"},"adminregion":{"id":"","value":""},"incomeLevel":{"id":"OEC","value":"High income: OECD"},"lendingType":{"id":"LNX","value":"Not classified"},"capitalCity":"Bern","longitude":"7.44821","latitude":"46.948"},{"id":"CHI","isoCode":"JG","name":"Channel Islands","region":{"id":"ECS","value":"Europe & Central Asia (all income levels)"},"adminregion":{"id":"","value":""},"incomeLevel":{"id":"NOC","value":"High income: nonOECD"},"lendingType":{"id":"LNX","value":"Not classified"},"capitalCity":"","longitude":"","latitude":""},{"id":"CHL","isoCode":"CL","name":"Chile","region":{"id":"LCN","value":"Latin America & Caribbean (all income levels)"},"adminregion":{"id":"","value":""},"incomeLevel":{"id":"OEC","value":"High income: OECD"},"lendingType":{"id":"IBD","value":"IBRD"},"capitalCity":"Santiago","longitude":"-70.6475","latitude":"-33.475"},{"id":"CHN","isoCode":"CN","name":"China","region":{"id":"EAS","value":"East Asia & Pacific (all income levels)"},"adminregion":{"id":"EAP","value":"East Asia & Pacific (developing only)"},"incomeLevel":{"id":"UMC","value":"Upper middle income"},"lendingType":{"id":"IBD","value":"IBRD"},"capitalCity":"Beijing","longitude":"116.286","latitude":"40.0495"},{"id":"CIV","isoCode":"CI","name":"Cote d'Ivoire","region":{"id":"SSF","value":"Sub-Saharan Africa (all income levels)"},"adminregion":{"id":"SSA","value":"Sub-Saharan Africa (developing only)"},"incomeLevel":{"id":"LMC","value":"Lower middle income"},"lendingType":{"id":"IDX","value":"IDA"},"capitalCity":"Yamoussoukro","longitude":"-4.0305","latitude":"5.332"},{"id":"CLA","isoCode":"C6","name":"Latin America and the Caribbean (IFC classification)","region":{"id":"NA","value":"Aggregates"},"adminregion":{"id":"","value":""},"incomeLevel":{"id":"NA","value":"Aggregates"},"lendingType":{"id":"","value":"Aggregates"},"capitalCity":"","longitude":"","latitude":""},{"id":"CME","isoCode":"C7","name":"Middle East and North Africa (IFC classification)","region":{"id":"NA","value":"Aggregates"},"adminregion":{"id":"","value":""},"incomeLevel":{"id":"NA","value":"Aggregates"},"lendingType":{"id":"","value":"Aggregates"},"capitalCity":"","longitude":"","latitude":""},{"id":"CMR","isoCode":"CM","name":"Cameroon","region":{"id":"SSF","value":"Sub-Saharan Africa (all income levels)"},"adminregion":{"id":"SSA","value":"Sub-Saharan Africa (developing only)"},"incomeLevel":{"id":"LMC","value":"Lower middle income"},"lendingType":{"id":"IDX","value":"IDA"},"capitalCity":"Yaounde","longitude":"11.5174","latitude":"3.8721"},{"id":"COD","isoCode":"CD","name":"Congo, Dem. Rep.","region":{"id":"SSF","value":"Sub-Saharan Africa (all income levels)"},"adminregion":{"id":"SSA","value":"Sub-Saharan Africa (developing only)"},"incomeLevel":{"id":"LIC","value":"Low income"},"lendingType":{"id":"IDX","value":"IDA"},"capitalCity":"Kinshasa","longitude":"15.3222","latitude":"-4.325"},{"id":"COG","isoCode":"CG","name":"Congo, Rep.","region":{"id":"SSF","value":"Sub-Saharan Africa (all income levels)"},"adminregion":{"id":"SSA","value":"Sub-Saharan Africa (developing only)"},"incomeLevel":{"id":"LMC","value":"Lower middle income"},"lendingType":{"id":"IDX","value":"IDA"},"capitalCity":"Brazzaville","longitude":"15.2662","latitude":"-4.2767"},{"id":"COL","isoCode":"CO","name":"Colombia","region":{"id":"LCN","value":"Latin America & Caribbean (all income levels)"},"adminregion":{"id":"LAC","value":"Latin America & Caribbean (developing only)"},"incomeLevel":{"id":"UMC","value":"Upper middle income"},"lendingType":{"id":"IBD","value":"IBRD"},"capitalCity":"Bogota","longitude":"-74.082","latitude":"4.60987"},{"id":"COM","isoCode":"KM","name":"Comoros","region":{"id":"SSF","value":"Sub-Saharan Africa (all income levels)"},"adminregion":{"id":"SSA","value":"Sub-Saharan Africa (developing only)"},"incomeLevel":{"id":"LIC","value":"Low income"},"lendingType":{"id":"IDX","value":"IDA"},"capitalCity":"Moroni","longitude":"43.2418","latitude":"-11.6986"},{"id":"CPV","isoCode":"CV","name":"Cabo Verde","region":{"id":"SSF","value":"Sub-Saharan Africa (all income levels)"},"adminregion":{"id":"SSA","value":"Sub-Saharan Africa (developing only)"},"incomeLevel":{"id":"LMC","value":"Lower middle income"},"lendingType":{"id":"IDB","value":"Blend"},"capitalCity":"Praia","longitude":"-23.5087","latitude":"14.9218"},{"id":"CRI","isoCode":"CR","name":"Costa Rica","region":{"id":"LCN","value":"Latin America & Caribbean (all income levels)"},"adminregion":{"id":"LAC","value":"Latin America & Caribbean (developing only)"},"incomeLevel":{"id":"UMC","value":"Upper middle income"},"lendingType":{"id":"IBD","value":"IBRD"},"capitalCity":"San Jose","longitude":"-84.0089","latitude":"9.63701"},{"id":"CSA","isoCode":"C8","name":"South Asia (IFC classification)","region":{"id":"NA","value":"Aggregates"},"adminregion":{"id":"","value":""},"incomeLevel":{"id":"NA","value":"Aggregates"},"lendingType":{"id":"","value":"Aggregates"},"capitalCity":"","longitude":"","latitude":""},{"id":"CSS","isoCode":"S3","name":"Caribbean small states","region":{"id":"NA","value":"Aggregates"},"adminregion":{"id":"","value":""},"incomeLevel":{"id":"NA","value":"Aggregates"},"lendingType":{"id":"","value":"Aggregates"},"capitalCity":"","longitude":"","latitude":""},{"id":"CUB","isoCode":"CU","name":"Cuba","region":{"id":"LCN","value":"Latin America & Caribbean (all income levels)"},"adminregion":{"id":"LAC","value":"Latin America & Caribbean (developing only)"},"incomeLevel":{"id":"UMC","value":"Upper middle income"},"lendingType":{"id":"LNX","value":"Not classified"},"capitalCity":"Havana","longitude":"-82.3667","latitude":"23.1333"},{"id":"CUW","isoCode":"CW","name":"Curacao","region":{"id":"LCN","value":"Latin America & Caribbean (all income levels)"},"adminregion":{"id":"","value":""},"incomeLevel":{"id":"NOC","value":"High income: nonOECD"},"lendingType":{"id":"LNX","value":"Not classified"},"capitalCity":"Willemstad","longitude":"","latitude":""},{"id":"CYM","isoCode":"KY","name":"Cayman Islands","region":{"id":"LCN","value":"Latin America & Caribbean (all income levels)"},"adminregion":{"id":"","value":""},"incomeLevel":{"id":"NOC","value":"High income: nonOECD"},"lendingType":{"id":"LNX","value":"Not classified"},"capitalCity":"George Town","longitude":"-81.3857","latitude":"19.3022"},{"id":"CYP","isoCode":"CY","name":"Cyprus","region":{"id":"ECS","value":"Europe & Central Asia (all income levels)"},"adminregion":{"id":"","value":""},"incomeLevel":{"id":"NOC","value":"High income: nonOECD"},"lendingType":{"id":"LNX","value":"Not classified"},"capitalCity":"Nicosia","longitude":"33.3736","latitude":"35.1676"},{"id":"CZE","isoCode":"CZ","name":"Czech Republic","region":{"id":"ECS","value":"Europe & Central Asia (all income levels)"},"adminregion":{"id":"","value":""},"incomeLevel":{"id":"OEC","value":"High income: OECD"},"lendingType":{"id":"LNX","value":"Not classified"},"capitalCity":"Prague","longitude":"14.4205","latitude":"50.0878"},{"id":"DEU","isoCode":"DE","name":"Germany","region":{"id":"ECS","value":"Europe & Central Asia (all income levels)"},"adminregion":{"id":"","value":""},"incomeLevel":{"id":"OEC","value":"High income: OECD"},"lendingType":{"id":"LNX","value":"Not classified"},"capitalCity":"Berlin","longitude":"13.4115","latitude":"52.5235"},{"id":"DJI","isoCode":"DJ","name":"Djibouti","region":{"id":"MEA","value":"Middle East & North Africa (all income levels)"},"adminregion":{"id":"MNA","value":"Middle East & North Africa (developing only)"},"incomeLevel":{"id":"LMC","value":"Lower middle income"},"lendingType":{"id":"IDX","value":"IDA"},"capitalCity":"Djibouti","longitude":"43.1425","latitude":"11.5806"},{"id":"DMA","isoCode":"DM","name":"Dominica","region":{"id":"LCN","value":"Latin America & Caribbean (all income levels)"},"adminregion":{"id":"LAC","value":"Latin America & Caribbean (developing only)"},"incomeLevel":{"id":"UMC","value":"Upper middle income"},"lendingType":{"id":"IDB","value":"Blend"},"capitalCity":"Roseau","longitude":"-61.39","latitude":"15.2976"},{"id":"DNK","isoCode":"DK","name":"Denmark","region":{"id":"ECS","value":"Europe & Central Asia (all income levels)"},"adminregion":{"id":"","value":""},"incomeLevel":{"id":"OEC","value":"High income: OECD"},"lendingType":{"id":"LNX","value":"Not classified"},"capitalCity":"Copenhagen","longitude":"12.5681","latitude":"55.6763"},{"id":"DOM","isoCode":"DO","name":"Dominican Republic","region":{"id":"LCN","value":"Latin America & Caribbean (all income levels)"},"adminregion":{"id":"LAC","value":"Latin America & Caribbean (developing only)"},"incomeLevel":{"id":"UMC","value":"Upper middle income"},"lendingType":{"id":"IBD","value":"IBRD"},"capitalCity":"Santo Domingo","longitude":"-69.8908","latitude":"18.479"},{"id":"DZA","isoCode":"DZ","name":"Algeria","region":{"id":"MEA","value":"Middle East & North Africa (all income levels)"},"adminregion":{"id":"MNA","value":"Middle East & North Africa (developing only)"},"incomeLevel":{"id":"UMC","value":"Upper middle income"},"lendingType":{"id":"IBD","value":"IBRD"},"capitalCity":"Algiers","longitude":"3.05097","latitude":"36.7397"},{"id":"EAP","isoCode":"4E","name":"East Asia & Pacific (developing only)","region":{"id":"NA","value":"Aggregates"},"adminregion":{"id":"","value":""},"incomeLevel":{"id":"NA","value":"Aggregates"},"lendingType":{"id":"","value":"Aggregates"},"capitalCity":"","longitude":"","latitude":""},{"id":"EAS","isoCode":"Z4","name":"East Asia & Pacific (all income levels)","region":{"id":"NA","value":"Aggregates"},"adminregion":{"id":"","value":""},"incomeLevel":{"id":"NA","value":"Aggregates"},"lendingType":{"id":"","value":"Aggregates"},"capitalCity":"","longitude":"","latitude":""},{"id":"ECA","isoCode":"7E","name":"Europe & Central Asia (developing only)","region":{"id":"NA","value":"Aggregates"},"adminregion":{"id":"","value":""},"incomeLevel":{"id":"NA","value":"Aggregates"},"lendingType":{"id":"","value":"Aggregates"},"capitalCity":"","longitude":"","latitude":""},{"id":"ECS","isoCode":"Z7","name":"Europe & Central Asia (all income levels)","region":{"id":"NA","value":"Aggregates"},"adminregion":{"id":"","value":""},"incomeLevel":{"id":"NA","value":"Aggregates"},"lendingType":{"id":"","value":"Aggregates"},"capitalCity":"","longitude":"","latitude":""},{"id":"ECU","isoCode":"EC","name":"Ecuador","region":{"id":"LCN","value":"Latin America & Caribbean (all income levels)"},"adminregion":{"id":"LAC","value":"Latin America & Caribbean (developing only)"},"incomeLevel":{"id":"UMC","value":"Upper middle income"},"lendingType":{"id":"IBD","value":"IBRD"},"capitalCity":"Quito","longitude":"-78.5243","latitude":"-0.229498"},{"id":"EGY","isoCode":"EG","name":"Egypt, Arab Rep.","region":{"id":"MEA","value":"Middle East & North Africa (all income levels)"},"adminregion":{"id":"MNA","value":"Middle East & North Africa (developing only)"},"incomeLevel":{"id":"LMC","value":"Lower middle income"},"lendingType":{"id":"IBD","value":"IBRD"},"capitalCity":"Cairo","longitude":"31.2461","latitude":"30.0982"},{"id":"EMU","isoCode":"XC","name":"Euro area","region":{"id":"NA","value":"Aggregates"},"adminregion":{"id":"","value":""},"incomeLevel":{"id":"NA","value":"Aggregates"},"lendingType":{"id":"","value":"Aggregates"},"capitalCity":"","longitude":"","latitude":""},{"id":"ERI","isoCode":"ER","name":"Eritrea","region":{"id":"SSF","value":"Sub-Saharan Africa (all income levels)"},"adminregion":{"id":"SSA","value":"Sub-Saharan Africa (developing only)"},"incomeLevel":{"id":"LIC","value":"Low income"},"lendingType":{"id":"IDX","value":"IDA"},"capitalCity":"Asmara","longitude":"38.9183","latitude":"15.3315"},{"id":"ESP","isoCode":"ES","name":"Spain","region":{"id":"ECS","value":"Europe & Central Asia (all income levels)"},"adminregion":{"id":"","value":""},"incomeLevel":{"id":"OEC","value":"High income: OECD"},"lendingType":{"id":"LNX","value":"Not classified"},"capitalCity":"Madrid","longitude":"-3.70327","latitude":"40.4167"},{"id":"EST","isoCode":"EE","name":"Estonia","region":{"id":"ECS","value":"Europe & Central Asia (all income levels)"},"adminregion":{"id":"","value":""},"incomeLevel":{"id":"OEC","value":"High income: OECD"},"lendingType":{"id":"LNX","value":"Not classified"},"capitalCity":"Tallinn","longitude":"24.7586","latitude":"59.4392"},{"id":"ETH","isoCode":"ET","name":"Ethiopia","region":{"id":"SSF","value":"Sub-Saharan Africa (all income levels)"},"adminregion":{"id":"SSA","value":"Sub-Saharan Africa (developing only)"},"incomeLevel":{"id":"LIC","value":"Low income"},"lendingType":{"id":"IDX","value":"IDA"},"capitalCity":"Addis Ababa","longitude":"38.7468","latitude":"9.02274"},{"id":"EUU","isoCode":"EU","name":"European Union","region":{"id":"NA","value":"Aggregates"},"adminregion":{"id":"","value":""},"incomeLevel":{"id":"NA","value":"Aggregates"},"lendingType":{"id":"","value":"Aggregates"},"capitalCity":"","longitude":"","latitude":""},{"id":"FIN","isoCode":"FI","name":"Finland","region":{"id":"ECS","value":"Europe & Central Asia (all income levels)"},"adminregion":{"id":"","value":""},"incomeLevel":{"id":"OEC","value":"High income: OECD"},"lendingType":{"id":"LNX","value":"Not classified"},"capitalCity":"Helsinki","longitude":"24.9525","latitude":"60.1608"},{"id":"FJI","isoCode":"FJ","name":"Fiji","region":{"id":"EAS","value":"East Asia & Pacific (all income levels)"},"adminregion":{"id":"EAP","value":"East Asia & Pacific (developing only)"},"incomeLevel":{"id":"UMC","value":"Upper middle income"},"lendingType":{"id":"IBD","value":"IBRD"},"capitalCity":"Suva","longitude":"178.399","latitude":"-18.1149"},{"id":"FRA","isoCode":"FR","name":"France","region":{"id":"ECS","value":"Europe & Central Asia (all income levels)"},"adminregion":{"id":"","value":""},"incomeLevel":{"id":"OEC","value":"High income: OECD"},"lendingType":{"id":"LNX","value":"Not classified"},"capitalCity":"Paris","longitude":"2.35097","latitude":"48.8566"},{"id":"FRO","isoCode":"FO","name":"Faeroe Islands","region":{"id":"ECS","value":"Europe & Central Asia (all income levels)"},"adminregion":{"id":"","value":""},"incomeLevel":{"id":"NOC","value":"High income: nonOECD"},"lendingType":{"id":"LNX","value":"Not classified"},"capitalCity":"Torshavn","longitude":"-6.91181","latitude":"61.8926"},{"id":"FSM","isoCode":"FM","name":"Micronesia, Fed. Sts.","region":{"id":"EAS","value":"East Asia & Pacific (all income levels)"},"adminregion":{"id":"EAP","value":"East Asia & Pacific (developing only)"},"incomeLevel":{"id":"LMC","value":"Lower middle income"},"lendingType":{"id":"IDX","value":"IDA"},"capitalCity":"Palikir","longitude":"158.185","latitude":"6.91771"},{"id":"GAB","isoCode":"GA","name":"Gabon","region":{"id":"SSF","value":"Sub-Saharan Africa (all income levels)"},"adminregion":{"id":"SSA","value":"Sub-Saharan Africa (developing only)"},"incomeLevel":{"id":"UMC","value":"Upper middle income"},"lendingType":{"id":"IBD","value":"IBRD"},"capitalCity":"Libreville","longitude":"9.45162","latitude":"0.38832"},{"id":"GBR","isoCode":"GB","name":"United Kingdom","region":{"id":"ECS","value":"Europe & Central Asia (all income levels)"},"adminregion":{"id":"","value":""},"incomeLevel":{"id":"OEC","value":"High income: OECD"},"lendingType":{"id":"LNX","value":"Not classified"},"capitalCity":"London","longitude":"-0.126236","latitude":"51.5002"},{"id":"GEO","isoCode":"GE","name":"Georgia","region":{"id":"ECS","value":"Europe & Central Asia (all income levels)"},"adminregion":{"id":"ECA","value":"Europe & Central Asia (developing only)"},"incomeLevel":{"id":"LMC","value":"Lower middle income"},"lendingType":{"id":"IDB","value":"Blend"},"capitalCity":"Tbilisi","longitude":"44.793","latitude":"41.71"},{"id":"GHA","isoCode":"GH","name":"Ghana","region":{"id":"SSF","value":"Sub-Saharan Africa (all income levels)"},"adminregion":{"id":"SSA","value":"Sub-Saharan Africa (developing only)"},"incomeLevel":{"id":"LMC","value":"Lower middle income"},"lendingType":{"id":"IDX","value":"IDA"},"capitalCity":"Accra","longitude":"-0.20795","latitude":"5.57045"},{"id":"GIN","isoCode":"GN","name":"Guinea","region":{"id":"SSF","value":"Sub-Saharan Africa (all income levels)"},"adminregion":{"id":"SSA","value":"Sub-Saharan Africa (developing only)"},"incomeLevel":{"id":"LIC","value":"Low income"},"lendingType":{"id":"IDX","value":"IDA"},"capitalCity":"Conakry","longitude":"-13.7","latitude":"9.51667"},{"id":"GMB","isoCode":"GM","name":"Gambia, The","region":{"id":"SSF","value":"Sub-Saharan Africa (all income levels)"},"adminregion":{"id":"SSA","value":"Sub-Saharan Africa (developing only)"},"incomeLevel":{"id":"LIC","value":"Low income"},"lendingType":{"id":"IDX","value":"IDA"},"capitalCity":"Banjul","longitude":"-16.5885","latitude":"13.4495"},{"id":"GNB","isoCode":"GW","name":"Guinea-Bissau","region":{"id":"SSF","value":"Sub-Saharan Africa (all income levels)"},"adminregion":{"id":"SSA","value":"Sub-Saharan Africa (developing only)"},"incomeLevel":{"id":"LIC","value":"Low income"},"lendingType":{"id":"IDX","value":"IDA"},"capitalCity":"Bissau","longitude":"-15.1804","latitude":"11.8037"},{"id":"GNQ","isoCode":"GQ","name":"Equatorial Guinea","region":{"id":"SSF","value":"Sub-Saharan Africa (all income levels)"},"adminregion":{"id":"","value":""},"incomeLevel":{"id":"NOC","value":"High income: nonOECD"},"lendingType":{"id":"IBD","value":"IBRD"},"capitalCity":"Malabo","longitude":"8.7741","latitude":"3.7523"},{"id":"GRC","isoCode":"GR","name":"Greece","region":{"id":"ECS","value":"Europe & Central Asia (all income levels)"},"adminregion":{"id":"","value":""},"incomeLevel":{"id":"OEC","value":"High income: OECD"},"lendingType":{"id":"LNX","value":"Not classified"},"capitalCity":"Athens","longitude":"23.7166","latitude":"37.9792"},{"id":"GRD","isoCode":"GD","name":"Grenada","region":{"id":"LCN","value":"Latin America & Caribbean (all income levels)"},"adminregion":{"id":"LAC","value":"Latin America & Caribbean (developing only)"},"incomeLevel":{"id":"UMC","value":"Upper middle income"},"lendingType":{"id":"IDB","value":"Blend"},"capitalCity":"Saint George's","longitude":"-61.7449","latitude":"12.0653"},{"id":"GRL","isoCode":"GL","name":"Greenland","region":{"id":"ECS","value":"Europe & Central Asia (all income levels)"},"adminregion":{"id":"","value":""},"incomeLevel":{"id":"NOC","value":"High income: nonOECD"},"lendingType":{"id":"LNX","value":"Not classified"},"capitalCity":"Nuuk","longitude":"-51.7214","latitude":"64.1836"},{"id":"GTM","isoCode":"GT","name":"Guatemala","region":{"id":"LCN","value":"Latin America & Caribbean (all income levels)"},"adminregion":{"id":"LAC","value":"Latin America & Caribbean (developing only)"},"incomeLevel":{"id":"LMC","value":"Lower middle income"},"lendingType":{"id":"IBD","value":"IBRD"},"capitalCity":"Guatemala City","longitude":"-90.5328","latitude":"14.6248"},{"id":"GUM","isoCode":"GU","name":"Guam","region":{"id":"EAS","value":"East Asia & Pacific (all income levels)"},"adminregion":{"id":"","value":""},"incomeLevel":{"id":"NOC","value":"High income: nonOECD"},"lendingType":{"id":"LNX","value":"Not classified"},"capitalCity":"Agana","longitude":"144.794","latitude":"13.4443"},{"id":"GUY","isoCode":"GY","name":"Guyana","region":{"id":"LCN","value":"Latin America & Caribbean (all income levels)"},"adminregion":{"id":"LAC","value":"Latin America & Caribbean (developing only)"},"incomeLevel":{"id":"LMC","value":"Lower middle income"},"lendingType":{"id":"IDX","value":"IDA"},"capitalCity":"Georgetown","longitude":"-58.1548","latitude":"6.80461"},{"id":"HIC","isoCode":"XD","name":"High income","region":{"id":"NA","value":"Aggregates"},"adminregion":{"id":"","value":""},"incomeLevel":{"id":"NA","value":"Aggregates"},"lendingType":{"id":"","value":"Aggregates"},"capitalCity":"","longitude":"","latitude":""},{"id":"HKG","isoCode":"HK","name":"Hong Kong SAR, China","region":{"id":"EAS","value":"East Asia & Pacific (all income levels)"},"adminregion":{"id":"","value":""},"incomeLevel":{"id":"NOC","value":"High income: nonOECD"},"lendingType":{"id":"LNX","value":"Not classified"},"capitalCity":"","longitude":"114.109","latitude":"22.3964"},{"id":"HND","isoCode":"HN","name":"Honduras","region":{"id":"LCN","value":"Latin America & Caribbean (all income levels)"},"adminregion":{"id":"LAC","value":"Latin America & Caribbean (developing only)"},"incomeLevel":{"id":"LMC","value":"Lower middle income"},"lendingType":{"id":"IDX","value":"IDA"},"capitalCity":"Tegucigalpa","longitude":"-87.4667","latitude":"15.1333"},{"id":"HPC","isoCode":"XE","name":"Heavily indebted poor countries (HIPC)","region":{"id":"NA","value":"Aggregates"},"adminregion":{"id":"","value":""},"incomeLevel":{"id":"NA","value":"Aggregates"},"lendingType":{"id":"","value":"Aggregates"},"capitalCity":"","longitude":"","latitude":""},{"id":"HRV","isoCode":"HR","name":"Croatia","region":{"id":"ECS","value":"Europe & Central Asia (all income levels)"},"adminregion":{"id":"","value":""},"incomeLevel":{"id":"NOC","value":"High income: nonOECD"},"lendingType":{"id":"IBD","value":"IBRD"},"capitalCity":"Zagreb","longitude":"15.9614","latitude":"45.8069"},{"id":"HTI","isoCode":"HT","name":"Haiti","region":{"id":"LCN","value":"Latin America & Caribbean (all income levels)"},"adminregion":{"id":"LAC","value":"Latin America & Caribbean (developing only)"},"incomeLevel":{"id":"LIC","value":"Low income"},"lendingType":{"id":"IDX","value":"IDA"},"capitalCity":"Port-au-Prince","longitude":"-72.3288","latitude":"18.5392"},{"id":"HUN","isoCode":"HU","name":"Hungary","region":{"id":"ECS","value":"Europe & Central Asia (all income levels)"},"adminregion":{"id":"","value":""},"incomeLevel":{"id":"UMC","value":"Upper middle income"},"lendingType":{"id":"LNX","value":"Not classified"},"capitalCity":"Budapest","longitude":"19.0408","latitude":"47.4984"},{"id":"IDN","isoCode":"ID","name":"Indonesia","region":{"id":"EAS","value":"East Asia & Pacific (all income levels)"},"adminregion":{"id":"EAP","value":"East Asia & Pacific (developing only)"},"incomeLevel":{"id":"LMC","value":"Lower middle income"},"lendingType":{"id":"IBD","value":"IBRD"},"capitalCity":"Jakarta","longitude":"106.83","latitude":"-6.19752"},{"id":"IMN","isoCode":"IM","name":"Isle of Man","region":{"id":"ECS","value":"Europe & Central Asia (all income levels)"},"adminregion":{"id":"","value":""},"incomeLevel":{"id":"NOC","value":"High income: nonOECD"},"lendingType":{"id":"LNX","value":"Not classified"},"capitalCity":"Douglas","longitude":"-4.47928","latitude":"54.1509"},{"id":"IND","isoCode":"IN","name":"India","region":{"id":"SAS","value":"South Asia"},"adminregion":{"id":"SAS","value":"South Asia"},"incomeLevel":{"id":"LMC","value":"Lower middle income"},"lendingType":{"id":"IDB","value":"Blend"},"capitalCity":"New Delhi","longitude":"77.225","latitude":"28.6353"},{"id":"INX","isoCode":"XY","name":"Not classified","region":{"id":"NA","value":"Aggregates"},"adminregion":{"id":"","value":""},"incomeLevel":{"id":"NA","value":"Aggregates"},"lendingType":{"id":"","value":"Aggregates"},"capitalCity":"","longitude":"","latitude":""},{"id":"IRL","isoCode":"IE","name":"Ireland","region":{"id":"ECS","value":"Europe & Central Asia (all income levels)"},"adminregion":{"id":"","value":""},"incomeLevel":{"id":"OEC","value":"High income: OECD"},"lendingType":{"id":"LNX","value":"Not classified"},"capitalCity":"Dublin","longitude":"-6.26749","latitude":"53.3441"},{"id":"IRN","isoCode":"IR","name":"Iran, Islamic Rep.","region":{"id":"MEA","value":"Middle East & North Africa (all income levels)"},"adminregion":{"id":"MNA","value":"Middle East & North Africa (developing only)"},"incomeLevel":{"id":"UMC","value":"Upper middle income"},"lendingType":{"id":"IBD","value":"IBRD"},"capitalCity":"Tehran","longitude":"51.4447","latitude":"35.6878"},{"id":"IRQ","isoCode":"IQ","name":"Iraq","region":{"id":"MEA","value":"Middle East & North Africa (all income levels)"},"adminregion":{"id":"MNA","value":"Middle East & North Africa (developing only)"},"incomeLevel":{"id":"UMC","value":"Upper middle income"},"lendingType":{"id":"IBD","value":"IBRD"},"capitalCity":"Baghdad","longitude":"44.394","latitude":"33.3302"},{"id":"ISL","isoCode":"IS","name":"Iceland","region":{"id":"ECS","value":"Europe & Central Asia (all income levels)"},"adminregion":{"id":"","value":""},"incomeLevel":{"id":"OEC","value":"High income: OECD"},"lendingType":{"id":"LNX","value":"Not classified"},"capitalCity":"Reykjavik","longitude":"-21.8952","latitude":"64.1353"},{"id":"ISR","isoCode":"IL","name":"Israel","region":{"id":"MEA","value":"Middle East & North Africa (all income levels)"},"adminregion":{"id":"","value":""},"incomeLevel":{"id":"OEC","value":"High income: OECD"},"lendingType":{"id":"LNX","value":"Not classified"},"capitalCity":"","longitude":"35.2035","latitude":"31.7717"},{"id":"ITA","isoCode":"IT","name":"Italy","region":{"id":"ECS","value":"Europe & Central Asia (all income levels)"},"adminregion":{"id":"","value":""},"incomeLevel":{"id":"OEC","value":"High income: OECD"},"lendingType":{"id":"LNX","value":"Not classified"},"capitalCity":"Rome","longitude":"12.4823","latitude":"41.8955"},{"id":"JAM","isoCode":"JM","name":"Jamaica","region":{"id":"LCN","value":"Latin America & Caribbean (all income levels)"},"adminregion":{"id":"LAC","value":"Latin America & Caribbean (developing only)"},"incomeLevel":{"id":"UMC","value":"Upper middle income"},"lendingType":{"id":"IBD","value":"IBRD"},"capitalCity":"Kingston","longitude":"-76.792","latitude":"17.9927"},{"id":"JOR","isoCode":"JO","name":"Jordan","region":{"id":"MEA","value":"Middle East & North Africa (all income levels)"},"adminregion":{"id":"MNA","value":"Middle East & North Africa (developing only)"},"incomeLevel":{"id":"UMC","value":"Upper middle income"},"lendingType":{"id":"IBD","value":"IBRD"},"capitalCity":"Amman","longitude":"35.9263","latitude":"31.9497"},{"id":"JPN","isoCode":"JP","name":"Japan","region":{"id":"EAS","value":"East Asia & Pacific (all income levels)"},"adminregion":{"id":"","value":""},"incomeLevel":{"id":"OEC","value":"High income: OECD"},"lendingType":{"id":"LNX","value":"Not classified"},"capitalCity":"Tokyo","longitude":"139.77","latitude":"35.67"},{"id":"KAZ","isoCode":"KZ","name":"Kazakhstan","region":{"id":"ECS","value":"Europe & Central Asia (all income levels)"},"adminregion":{"id":"ECA","value":"Europe & Central Asia (developing only)"},"incomeLevel":{"id":"UMC","value":"Upper middle income"},"lendingType":{"id":"IBD","value":"IBRD"},"capitalCity":"Astana","longitude":"71.4382","latitude":"51.1879"},{"id":"KEN","isoCode":"KE","name":"Kenya","region":{"id":"SSF","value":"Sub-Saharan Africa (all income levels)"},"adminregion":{"id":"SSA","value":"Sub-Saharan Africa (developing only)"},"incomeLevel":{"id":"LIC","value":"Low income"},"lendingType":{"id":"IDX","value":"IDA"},"capitalCity":"Nairobi","longitude":"36.8126","latitude":"-1.27975"},{"id":"KGZ","isoCode":"KG","name":"Kyrgyz Republic","region":{"id":"ECS","value":"Europe & Central Asia (all income levels)"},"adminregion":{"id":"ECA","value":"Europe & Central Asia (developing only)"},"incomeLevel":{"id":"LIC","value":"Low income"},"lendingType":{"id":"IDX","value":"IDA"},"capitalCity":"Bishkek","longitude":"74.6057","latitude":"42.8851"},{"id":"KHM","isoCode":"KH","name":"Cambodia","region":{"id":"EAS","value":"East Asia & Pacific (all income levels)"},"adminregion":{"id":"EAP","value":"East Asia & Pacific (developing only)"},"incomeLevel":{"id":"LIC","value":"Low income"},"lendingType":{"id":"IDX","value":"IDA"},"capitalCity":"Phnom Penh","longitude":"104.874","latitude":"11.5556"},{"id":"KIR","isoCode":"KI","name":"Kiribati","region":{"id":"EAS","value":"East Asia & Pacific (all income levels)"},"adminregion":{"id":"EAP","value":"East Asia & Pacific (developing only)"},"incomeLevel":{"id":"LMC","value":"Lower middle income"},"lendingType":{"id":"IDX","value":"IDA"},"capitalCity":"Tarawa","longitude":"172.979","latitude":"1.32905"},{"id":"KNA","isoCode":"KN","name":"St. Kitts and Nevis","region":{"id":"LCN","value":"Latin America & Caribbean (all income levels)"},"adminregion":{"id":"","value":""},"incomeLevel":{"id":"NOC","value":"High income: nonOECD"},"lendingType":{"id":"LNX","value":"Not classified"},"capitalCity":"Basseterre","longitude":"-62.7309","latitude":"17.3"},{"id":"KOR","isoCode":"KR","name":"Korea, Rep.","region":{"id":"EAS","value":"East Asia & Pacific (all income levels)"},"adminregion":{"id":"","value":""},"incomeLevel":{"id":"OEC","value":"High income: OECD"},"lendingType":{"id":"IBD","value":"IBRD"},"capitalCity":"Seoul","longitude":"126.957","latitude":"37.5323"},{"id":"KSV","isoCode":"KV","name":"Kosovo","region":{"id":"ECS","value":"Europe & Central Asia (all income levels)"},"adminregion":{"id":"ECA","value":"Europe & Central Asia (developing only)"},"incomeLevel":{"id":"LMC","value":"Lower middle income"},"lendingType":{"id":"IDX","value":"IDA"},"capitalCity":"Pristina","longitude":"20.926","latitude":"42.565"},{"id":"KWT","isoCode":"KW","name":"Kuwait","region":{"id":"MEA","value":"Middle East & North Africa (all income levels)"},"adminregion":{"id":"","value":""},"incomeLevel":{"id":"NOC","value":"High income: nonOECD"},"lendingType":{"id":"LNX","value":"Not classified"},"capitalCity":"Kuwait City","longitude":"47.9824","latitude":"29.3721"},{"id":"LAC","isoCode":"XJ","name":"Latin America & Caribbean (developing only)","region":{"id":"NA","value":"Aggregates"},"adminregion":{"id":"","value":""},"incomeLevel":{"id":"NA","value":"Aggregates"},"lendingType":{"id":"","value":"Aggregates"},"capitalCity":"","longitude":"","latitude":""},{"id":"LAO","isoCode":"LA","name":"Lao PDR","region":{"id":"EAS","value":"East Asia & Pacific (all income levels)"},"adminregion":{"id":"EAP","value":"East Asia & Pacific (developing only)"},"incomeLevel":{"id":"LMC","value":"Lower middle income"},"lendingType":{"id":"IDX","value":"IDA"},"capitalCity":"Vientiane","longitude":"102.177","latitude":"18.5826"},{"id":"LBN","isoCode":"LB","name":"Lebanon","region":{"id":"MEA","value":"Middle East & North Africa (all income levels)"},"adminregion":{"id":"MNA","value":"Middle East & North Africa (developing only)"},"incomeLevel":{"id":"UMC","value":"Upper middle income"},"lendingType":{"id":"IBD","value":"IBRD"},"capitalCity":"Beirut","longitude":"35.5134","latitude":"33.8872"},{"id":"LBR","isoCode":"LR","name":"Liberia","region":{"id":"SSF","value":"Sub-Saharan Africa (all income levels)"},"adminregion":{"id":"SSA","value":"Sub-Saharan Africa (developing only)"},"incomeLevel":{"id":"LIC","value":"Low income"},"lendingType":{"id":"IDX","value":"IDA"},"capitalCity":"Monrovia","longitude":"-10.7957","latitude":"6.30039"},{"id":"LBY","isoCode":"LY","name":"Libya","region":{"id":"MEA","value":"Middle East & North Africa (all income levels)"},"adminregion":{"id":"MNA","value":"Middle East & North Africa (developing only)"},"incomeLevel":{"id":"UMC","value":"Upper middle income"},"lendingType":{"id":"IBD","value":"IBRD"},"capitalCity":"Tripoli","longitude":"13.1072","latitude":"32.8578"},{"id":"LCA","isoCode":"LC","name":"St. Lucia","region":{"id":"LCN","value":"Latin America & Caribbean (all income levels)"},"adminregion":{"id":"LAC","value":"Latin America & Caribbean (developing only)"},"incomeLevel":{"id":"UMC","value":"Upper middle income"},"lendingType":{"id":"IDB","value":"Blend"},"capitalCity":"Castries","longitude":"-60.9832","latitude":"14"},{"id":"LCN","isoCode":"ZJ","name":"Latin America & Caribbean (all income levels)","region":{"id":"NA","value":"Aggregates"},"adminregion":{"id":"","value":""},"incomeLevel":{"id":"NA","value":"Aggregates"},"lendingType":{"id":"","value":"Aggregates"},"capitalCity":"","longitude":"","latitude":""},{"id":"LDC","isoCode":"XL","name":"Least developed countries: UN classification","region":{"id":"NA","value":"Aggregates"},"adminregion":{"id":"","value":""},"incomeLevel":{"id":"NA","value":"Aggregates"},"lendingType":{"id":"","value":"Aggregates"},"capitalCity":"","longitude":"","latitude":""},{"id":"LIC","isoCode":"XM","name":"Low income","region":{"id":"NA","value":"Aggregates"},"adminregion":{"id":"","value":""},"incomeLevel":{"id":"NA","value":"Aggregates"},"lendingType":{"id":"","value":"Aggregates"},"capitalCity":"","longitude":"","latitude":""},{"id":"LIE","isoCode":"LI","name":"Liechtenstein","region":{"id":"ECS","value":"Europe & Central Asia (all income levels)"},"adminregion":{"id":"","value":""},"incomeLevel":{"id":"NOC","value":"High income: nonOECD"},"lendingType":{"id":"LNX","value":"Not classified"},"capitalCity":"Vaduz","longitude":"9.52148","latitude":"47.1411"},{"id":"LKA","isoCode":"LK","name":"Sri Lanka","region":{"id":"SAS","value":"South Asia"},"adminregion":{"id":"SAS","value":"South Asia"},"incomeLevel":{"id":"LMC","value":"Lower middle income"},"lendingType":{"id":"IDB","value":"Blend"},"capitalCity":"Colombo","longitude":"79.8528","latitude":"6.92148"},{"id":"LMC","isoCode":"XN","name":"Lower middle income","region":{"id":"NA","value":"Aggregates"},"adminregion":{"id":"","value":""},"incomeLevel":{"id":"NA","value":"Aggregates"},"lendingType":{"id":"","value":"Aggregates"},"capitalCity":"","longitude":"","latitude":""},{"id":"LMY","isoCode":"XO","name":"Low & middle income","region":{"id":"NA","value":"Aggregates"},"adminregion":{"id":"","value":""},"incomeLevel":{"id":"NA","value":"Aggregates"},"lendingType":{"id":"","value":"Aggregates"},"capitalCity":"","longitude":"","latitude":""},{"id":"LSO","isoCode":"LS","name":"Lesotho","region":{"id":"SSF","value":"Sub-Saharan Africa (all income levels)"},"adminregion":{"id":"SSA","value":"Sub-Saharan Africa (developing only)"},"incomeLevel":{"id":"LMC","value":"Lower middle income"},"lendingType":{"id":"IDX","value":"IDA"},"capitalCity":"Maseru","longitude":"27.7167","latitude":"-29.5208"},{"id":"LTU","isoCode":"LT","name":"Lithuania","region":{"id":"ECS","value":"Europe & Central Asia (all income levels)"},"adminregion":{"id":"","value":""},"incomeLevel":{"id":"NOC","value":"High income: nonOECD"},"lendingType":{"id":"LNX","value":"Not classified"},"capitalCity":"Vilnius","longitude":"25.2799","latitude":"54.6896"},{"id":"LUX","isoCode":"LU","name":"Luxembourg","region":{"id":"ECS","value":"Europe & Central Asia (all income levels)"},"adminregion":{"id":"","value":""},"incomeLevel":{"id":"OEC","value":"High income: OECD"},"lendingType":{"id":"LNX","value":"Not classified"},"capitalCity":"Luxembourg","longitude":"6.1296","latitude":"49.61"},{"id":"LVA","isoCode":"LV","name":"Latvia","region":{"id":"ECS","value":"Europe & Central Asia (all income levels)"},"adminregion":{"id":"","value":""},"incomeLevel":{"id":"NOC","value":"High income: nonOECD"},"lendingType":{"id":"LNX","value":"Not classified"},"capitalCity":"Riga","longitude":"24.1048","latitude":"56.9465"},{"id":"MAC","isoCode":"MO","name":"Macao SAR, China","region":{"id":"EAS","value":"East Asia & Pacific (all income levels)"},"adminregion":{"id":"","value":""},"incomeLevel":{"id":"NOC","value":"High income: nonOECD"},"lendingType":{"id":"LNX","value":"Not classified"},"capitalCity":"","longitude":"113.55","latitude":"22.1667"},{"id":"MAF","isoCode":"MF","name":"St. Martin (French part)","region":{"id":"LCN","value":"Latin America & Caribbean (all income levels)"},"adminregion":{"id":"","value":""},"incomeLevel":{"id":"NOC","value":"High income: nonOECD"},"lendingType":{"id":"LNX","value":"Not classified"},"capitalCity":"Marigot","longitude":"","latitude":""},{"id":"MAR","isoCode":"MA","name":"Morocco","region":{"id":"MEA","value":"Middle East & North Africa (all income levels)"},"adminregion":{"id":"MNA","value":"Middle East & North Africa (developing only)"},"incomeLevel":{"id":"LMC","value":"Lower middle income"},"lendingType":{"id":"IBD","value":"IBRD"},"capitalCity":"Rabat","longitude":"-6.8704","latitude":"33.9905"},{"id":"MCO","isoCode":"MC","name":"Monaco","region":{"id":"ECS","value":"Europe & Central Asia (all income levels)"},"adminregion":{"id":"","value":""},"incomeLevel":{"id":"NOC","value":"High income: nonOECD"},"lendingType":{"id":"LNX","value":"Not classified"},"capitalCity":"Monaco","longitude":"7.41891","latitude":"43.7325"},{"id":"MDA","isoCode":"MD","name":"Moldova","region":{"id":"ECS","value":"Europe & Central Asia (all income levels)"},"adminregion":{"id":"ECA","value":"Europe & Central Asia (developing only)"},"incomeLevel":{"id":"LMC","value":"Lower middle income"},"lendingType":{"id":"IDB","value":"Blend"},"capitalCity":"Chisinau","longitude":"28.8497","latitude":"47.0167"},{"id":"MDG","isoCode":"MG","name":"Madagascar","region":{"id":"SSF","value":"Sub-Saharan Africa (all income levels)"},"adminregion":{"id":"SSA","value":"Sub-Saharan Africa (developing only)"},"incomeLevel":{"id":"LIC","value":"Low income"},"lendingType":{"id":"IDX","value":"IDA"},"capitalCity":"Antananarivo","longitude":"45.7167","latitude":"-20.4667"},{"id":"MDV","isoCode":"MV","name":"Maldives","region":{"id":"SAS","value":"South Asia"},"adminregion":{"id":"SAS","value":"South Asia"},"incomeLevel":{"id":"UMC","value":"Upper middle income"},"lendingType":{"id":"IDX","value":"IDA"},"capitalCity":"Male","longitude":"73.5109","latitude":"4.1742"},{"id":"MEA","isoCode":"ZQ","name":"Middle East & North Africa (all income levels)","region":{"id":"NA","value":"Aggregates"},"adminregion":{"id":"","value":""},"incomeLevel":{"id":"NA","value":"Aggregates"},"lendingType":{"id":"","value":"Aggregates"},"capitalCity":"","longitude":"","latitude":""},{"id":"MEX","isoCode":"MX","name":"Mexico","region":{"id":"LCN","value":"Latin America & Caribbean (all income levels)"},"adminregion":{"id":"LAC","value":"Latin America & Caribbean (developing only)"},"incomeLevel":{"id":"UMC","value":"Upper middle income"},"lendingType":{"id":"IBD","value":"IBRD"},"capitalCity":"Mexico City","longitude":"-99.1276","latitude":"19.427"},{"id":"MHL","isoCode":"MH","name":"Marshall Islands","region":{"id":"EAS","value":"East Asia & Pacific (all income levels)"},"adminregion":{"id":"EAP","value":"East Asia & Pacific (developing only)"},"incomeLevel":{"id":"UMC","value":"Upper middle income"},"lendingType":{"id":"IDX","value":"IDA"},"capitalCity":"Majuro","longitude":"171.135","latitude":"7.11046"},{"id":"MIC","isoCode":"XP","name":"Middle income","region":{"id":"NA","value":"Aggregates"},"adminregion":{"id":"","value":""},"incomeLevel":{"id":"NA","value":"Aggregates"},"lendingType":{"id":"","value":"Aggregates"},"capitalCity":"","longitude":"","latitude":""},{"id":"MKD","isoCode":"MK","name":"Macedonia, FYR","region":{"id":"ECS","value":"Europe & Central Asia (all income levels)"},"adminregion":{"id":"ECA","value":"Europe & Central Asia (developing only)"},"incomeLevel":{"id":"UMC","value":"Upper middle income"},"lendingType":{"id":"IBD","value":"IBRD"},"capitalCity":"Skopje","longitude":"21.4361","latitude":"42.0024"},{"id":"MLI","isoCode":"ML","name":"Mali","region":{"id":"SSF","value":"Sub-Saharan Africa (all income levels)"},"adminregion":{"id":"SSA","value":"Sub-Saharan Africa (developing only)"},"incomeLevel":{"id":"LIC","value":"Low income"},"lendingType":{"id":"IDX","value":"IDA"},"capitalCity":"Bamako","longitude":"-7.50034","latitude":"13.5667"},{"id":"MLT","isoCode":"MT","name":"Malta","region":{"id":"MEA","value":"Middle East & North Africa (all income levels)"},"adminregion":{"id":"","value":""},"incomeLevel":{"id":"NOC","value":"High income: nonOECD"},"lendingType":{"id":"LNX","value":"Not classified"},"capitalCity":"Valletta","longitude":"14.5189","latitude":"35.9042"},{"id":"MMR","isoCode":"MM","name":"Myanmar","region":{"id":"EAS","value":"East Asia & Pacific (all income levels)"},"adminregion":{"id":"EAP","value":"East Asia & Pacific (developing only)"},"incomeLevel":{"id":"LIC","value":"Low income"},"lendingType":{"id":"IDX","value":"IDA"},"capitalCity":"Naypyidaw","longitude":"95.9562","latitude":"21.914"},{"id":"MNA","isoCode":"XQ","name":"Middle East & North Africa (developing only)","region":{"id":"NA","value":"Aggregates"},"adminregion":{"id":"","value":""},"incomeLevel":{"id":"NA","value":"Aggregates"},"lendingType":{"id":"","value":"Aggregates"},"capitalCity":"","longitude":"","latitude":""},{"id":"MNE","isoCode":"ME","name":"Montenegro","region":{"id":"ECS","value":"Europe & Central Asia (all income levels)"},"adminregion":{"id":"ECA","value":"Europe & Central Asia (developing only)"},"incomeLevel":{"id":"UMC","value":"Upper middle income"},"lendingType":{"id":"IBD","value":"IBRD"},"capitalCity":"Podgorica","longitude":"19.2595","latitude":"42.4602"},{"id":"MNG","isoCode":"MN","name":"Mongolia","region":{"id":"EAS","value":"East Asia & Pacific (all income levels)"},"adminregion":{"id":"EAP","value":"East Asia & Pacific (developing only)"},"incomeLevel":{"id":"LMC","value":"Lower middle income"},"lendingType":{"id":"IDB","value":"Blend"},"capitalCity":"Ulaanbaatar","longitude":"106.937","latitude":"47.9129"},{"id":"MNP","isoCode":"MP","name":"Northern Mariana Islands","region":{"id":"EAS","value":"East Asia & Pacific (all income levels)"},"adminregion":{"id":"","value":""},"incomeLevel":{"id":"NOC","value":"High income: nonOECD"},"lendingType":{"id":"LNX","value":"Not classified"},"capitalCity":"Saipan","longitude":"145.765","latitude":"15.1935"},{"id":"MOZ","isoCode":"MZ","name":"Mozambique","region":{"id":"SSF","value":"Sub-Saharan Africa (all income levels)"},"adminregion":{"id":"SSA","value":"Sub-Saharan Africa (developing only)"},"incomeLevel":{"id":"LIC","value":"Low income"},"lendingType":{"id":"IDX","value":"IDA"},"capitalCity":"Maputo","longitude":"32.5713","latitude":"-25.9664"},{"id":"MRT","isoCode":"MR","name":"Mauritania","region":{"id":"SSF","value":"Sub-Saharan Africa (all income levels)"},"adminregion":{"id":"SSA","value":"Sub-Saharan Africa (developing only)"},"incomeLevel":{"id":"LMC","value":"Lower middle income"},"lendingType":{"id":"IDX","value":"IDA"},"capitalCity":"Nouakchott","longitude":"-15.9824","latitude":"18.2367"},{"id":"MUS","isoCode":"MU","name":"Mauritius","region":{"id":"SSF","value":"Sub-Saharan Africa (all income levels)"},"adminregion":{"id":"SSA","value":"Sub-Saharan Africa (developing only)"},"incomeLevel":{"id":"UMC","value":"Upper middle income"},"lendingType":{"id":"IBD","value":"IBRD"},"capitalCity":"Port Louis","longitude":"57.4977","latitude":"-20.1605"},{"id":"MWI","isoCode":"MW","name":"Malawi","region":{"id":"SSF","value":"Sub-Saharan Africa (all income levels)"},"adminregion":{"id":"SSA","value":"Sub-Saharan Africa (developing only)"},"incomeLevel":{"id":"LIC","value":"Low income"},"lendingType":{"id":"IDX","value":"IDA"},"capitalCity":"Lilongwe","longitude":"33.7703","latitude":"-13.9899"},{"id":"MYS","isoCode":"MY","name":"Malaysia","region":{"id":"EAS","value":"East Asia & Pacific (all income levels)"},"adminregion":{"id":"EAP","value":"East Asia & Pacific (developing only)"},"incomeLevel":{"id":"UMC","value":"Upper middle income"},"lendingType":{"id":"IBD","value":"IBRD"},"capitalCity":"Kuala Lumpur","longitude":"101.684","latitude":"3.12433"},{"id":"NAC","isoCode":"XU","name":"North America","region":{"id":"NA","value":"Aggregates"},"adminregion":{"id":"","value":""},"incomeLevel":{"id":"NA","value":"Aggregates"},"lendingType":{"id":"","value":"Aggregates"},"capitalCity":"","longitude":"","latitude":""},{"id":"NAF","isoCode":"M2","name":"North Africa","region":{"id":"NA","value":"Aggregates"},"adminregion":{"id":"","value":""},"incomeLevel":{"id":"NA","value":"Aggregates"},"lendingType":{"id":"","value":"Aggregates"},"capitalCity":"","longitude":"","latitude":""},{"id":"NAM","isoCode":"NA","name":"Namibia","region":{"id":"SSF","value":"Sub-Saharan Africa (all income levels)"},"adminregion":{"id":"SSA","value":"Sub-Saharan Africa (developing only)"},"incomeLevel":{"id":"UMC","value":"Upper middle income"},"lendingType":{"id":"IBD","value":"IBRD"},"capitalCity":"Windhoek","longitude":"17.0931","latitude":"-22.5648"},{"id":"NCL","isoCode":"NC","name":"New Caledonia","region":{"id":"EAS","value":"East Asia & Pacific (all income levels)"},"adminregion":{"id":"","value":""},"incomeLevel":{"id":"NOC","value":"High income: nonOECD"},"lendingType":{"id":"LNX","value":"Not classified"},"capitalCity":"Noum'ea","longitude":"166.464","latitude":"-22.2677"},{"id":"NER","isoCode":"NE","name":"Niger","region":{"id":"SSF","value":"Sub-Saharan Africa (all income levels)"},"adminregion":{"id":"SSA","value":"Sub-Saharan Africa (developing only)"},"incomeLevel":{"id":"LIC","value":"Low income"},"lendingType":{"id":"IDX","value":"IDA"},"capitalCity":"Niamey","longitude":"2.1073","latitude":"13.514"},{"id":"NGA","isoCode":"NG","name":"Nigeria","region":{"id":"SSF","value":"Sub-Saharan Africa (all income levels)"},"adminregion":{"id":"SSA","value":"Sub-Saharan Africa (developing only)"},"incomeLevel":{"id":"LMC","value":"Lower middle income"},"lendingType":{"id":"IDX","value":"IDA"},"capitalCity":"Abuja","longitude":"7.48906","latitude":"9.05804"},{"id":"NIC","isoCode":"NI","name":"Nicaragua","region":{"id":"LCN","value":"Latin America & Caribbean (all income levels)"},"adminregion":{"id":"LAC","value":"Latin America & Caribbean (developing only)"},"incomeLevel":{"id":"LMC","value":"Lower middle income"},"lendingType":{"id":"IDX","value":"IDA"},"capitalCity":"Managua","longitude":"-86.2734","latitude":"12.1475"},{"id":"NLD","isoCode":"NL","name":"Netherlands","region":{"id":"ECS","value":"Europe & Central Asia (all income levels)"},"adminregion":{"id":"","value":""},"incomeLevel":{"id":"OEC","value":"High income: OECD"},"lendingType":{"id":"LNX","value":"Not classified"},"capitalCity":"Amsterdam","longitude":"4.89095","latitude":"52.3738"},{"id":"NOC","isoCode":"XR","name":"High income: nonOECD","region":{"id":"NA","value":"Aggregates"},"adminregion":{"id":"","value":""},"incomeLevel":{"id":"NA","value":"Aggregates"},"lendingType":{"id":"","value":"Aggregates"},"capitalCity":"","longitude":"","latitude":""},{"id":"NOR","isoCode":"NO","name":"Norway","region":{"id":"ECS","value":"Europe & Central Asia (all income levels)"},"adminregion":{"id":"","value":""},"incomeLevel":{"id":"OEC","value":"High income: OECD"},"lendingType":{"id":"LNX","value":"Not classified"},"capitalCity":"Oslo","longitude":"10.7387","latitude":"59.9138"},{"id":"NPL","isoCode":"NP","name":"Nepal","region":{"id":"SAS","value":"South Asia"},"adminregion":{"id":"SAS","value":"South Asia"},"incomeLevel":{"id":"LIC","value":"Low income"},"lendingType":{"id":"IDX","value":"IDA"},"capitalCity":"Kathmandu","longitude":"85.3157","latitude":"27.6939"},{"id":"NZL","isoCode":"NZ","name":"New Zealand","region":{"id":"EAS","value":"East Asia & Pacific (all income levels)"},"adminregion":{"id":"","value":""},"incomeLevel":{"id":"OEC","value":"High income: OECD"},"lendingType":{"id":"LNX","value":"Not classified"},"capitalCity":"Wellington","longitude":"174.776","latitude":"-41.2865"},{"id":"OEC","isoCode":"XS","name":"High income: OECD","region":{"id":"NA","value":"Aggregates"},"adminregion":{"id":"","value":""},"incomeLevel":{"id":"NA","value":"Aggregates"},"lendingType":{"id":"","value":"Aggregates"},"capitalCity":"","longitude":"","latitude":""},{"id":"OED","isoCode":"OE","name":"OECD members","region":{"id":"NA","value":"Aggregates"},"adminregion":{"id":"","value":""},"incomeLevel":{"id":"NA","value":"Aggregates"},"lendingType":{"id":"","value":"Aggregates"},"capitalCity":"","longitude":"","latitude":""},{"id":"OMN","isoCode":"OM","name":"Oman","region":{"id":"MEA","value":"Middle East & North Africa (all income levels)"},"adminregion":{"id":"","value":""},"incomeLevel":{"id":"NOC","value":"High income: nonOECD"},"lendingType":{"id":"LNX","value":"Not classified"},"capitalCity":"Muscat","longitude":"58.5874","latitude":"23.6105"},{"id":"OSS","isoCode":"S4","name":"Other small states","region":{"id":"NA","value":"Aggregates"},"adminregion":{"id":"","value":""},"incomeLevel":{"id":"NA","value":"Aggregates"},"lendingType":{"id":"","value":"Aggregates"},"capitalCity":"","longitude":"","latitude":""},{"id":"PAK","isoCode":"PK","name":"Pakistan","region":{"id":"SAS","value":"South Asia"},"adminregion":{"id":"SAS","value":"South Asia"},"incomeLevel":{"id":"LMC","value":"Lower middle income"},"lendingType":{"id":"IDB","value":"Blend"},"capitalCity":"Islamabad","longitude":"72.8","latitude":"30.5167"},{"id":"PAN","isoCode":"PA","name":"Panama","region":{"id":"LCN","value":"Latin America & Caribbean (all income levels)"},"adminregion":{"id":"LAC","value":"Latin America & Caribbean (developing only)"},"incomeLevel":{"id":"UMC","value":"Upper middle income"},"lendingType":{"id":"IBD","value":"IBRD"},"capitalCity":"Panama City","longitude":"-79.5188","latitude":"8.99427"},{"id":"PER","isoCode":"PE","name":"Peru","region":{"id":"LCN","value":"Latin America & Caribbean (all income levels)"},"adminregion":{"id":"LAC","value":"Latin America & Caribbean (developing only)"},"incomeLevel":{"id":"UMC","value":"Upper middle income"},"lendingType":{"id":"IBD","value":"IBRD"},"capitalCity":"Lima","longitude":"-77.0465","latitude":"-12.0931"},{"id":"PHL","isoCode":"PH","name":"Philippines","region":{"id":"EAS","value":"East Asia & Pacific (all income levels)"},"adminregion":{"id":"EAP","value":"East Asia & Pacific (developing only)"},"incomeLevel":{"id":"LMC","value":"Lower middle income"},"lendingType":{"id":"IBD","value":"IBRD"},"capitalCity":"Manila","longitude":"121.035","latitude":"14.5515"},{"id":"PLW","isoCode":"PW","name":"Palau","region":{"id":"EAS","value":"East Asia & Pacific (all income levels)"},"adminregion":{"id":"EAP","value":"East Asia & Pacific (developing only)"},"incomeLevel":{"id":"UMC","value":"Upper middle income"},"lendingType":{"id":"IBD","value":"IBRD"},"capitalCity":"Koror","longitude":"134.479","latitude":"7.34194"},{"id":"PNG","isoCode":"PG","name":"Papua New Guinea","region":{"id":"EAS","value":"East Asia & Pacific (all income levels)"},"adminregion":{"id":"EAP","value":"East Asia & Pacific (developing only)"},"incomeLevel":{"id":"LMC","value":"Lower middle income"},"lendingType":{"id":"IDB","value":"Blend"},"capitalCity":"Port Moresby","longitude":"147.194","latitude":"-9.47357"},{"id":"POL","isoCode":"PL","name":"Poland","region":{"id":"ECS","value":"Europe & Central Asia (all income levels)"},"adminregion":{"id":"","value":""},"incomeLevel":{"id":"OEC","value":"High income: OECD"},"lendingType":{"id":"IBD","value":"IBRD"},"capitalCity":"Warsaw","longitude":"21.02","latitude":"52.26"},{"id":"PRI","isoCode":"PR","name":"Puerto Rico","region":{"id":"LCN","value":"Latin America & Caribbean (all income levels)"},"adminregion":{"id":"","value":""},"incomeLevel":{"id":"NOC","value":"High income: nonOECD"},"lendingType":{"id":"LNX","value":"Not classified"},"capitalCity":"San Juan","longitude":"-66","latitude":"18.23"},{"id":"PRK","isoCode":"KP","name":"Korea, Dem. Rep.","region":{"id":"EAS","value":"East Asia & Pacific (all income levels)"},"adminregion":{"id":"EAP","value":"East Asia & Pacific (developing only)"},"incomeLevel":{"id":"LIC","value":"Low income"},"lendingType":{"id":"LNX","value":"Not classified"},"capitalCity":"Pyongyang","longitude":"125.754","latitude":"39.0319"},{"id":"PRT","isoCode":"PT","name":"Portugal","region":{"id":"ECS","value":"Europe & Central Asia (all income levels)"},"adminregion":{"id":"","value":""},"incomeLevel":{"id":"OEC","value":"High income: OECD"},"lendingType":{"id":"LNX","value":"Not classified"},"capitalCity":"Lisbon","longitude":"-9.13552","latitude":"38.7072"},{"id":"PRY","isoCode":"PY","name":"Paraguay","region":{"id":"LCN","value":"Latin America & Caribbean (all income levels)"},"adminregion":{"id":"LAC","value":"Latin America & Caribbean (developing only)"},"incomeLevel":{"id":"LMC","value":"Lower middle income"},"lendingType":{"id":"IBD","value":"IBRD"},"capitalCity":"Asuncion","longitude":"-57.6362","latitude":"-25.3005"},{"id":"PSE","isoCode":"PS","name":"West Bank and Gaza","region":{"id":"MEA","value":"Middle East & North Africa (all income levels)"},"adminregion":{"id":"MNA","value":"Middle East & North Africa (developing only)"},"incomeLevel":{"id":"LMC","value":"Lower middle income"},"lendingType":{"id":"LNX","value":"Not classified"},"capitalCity":"","longitude":"","latitude":""},{"id":"PSS","isoCode":"S2","name":"Pacific island small states","region":{"id":"NA","value":"Aggregates"},"adminregion":{"id":"","value":""},"incomeLevel":{"id":"NA","value":"Aggregates"},"lendingType":{"id":"","value":"Aggregates"},"capitalCity":"","longitude":"","latitude":""},{"id":"PYF","isoCode":"PF","name":"French Polynesia","region":{"id":"EAS","value":"East Asia & Pacific (all income levels)"},"adminregion":{"id":"","value":""},"incomeLevel":{"id":"NOC","value":"High income: nonOECD"},"lendingType":{"id":"LNX","value":"Not classified"},"capitalCity":"Papeete","longitude":"-149.57","latitude":"-17.535"},{"id":"QAT","isoCode":"QA","name":"Qatar","region":{"id":"MEA","value":"Middle East & North Africa (all income levels)"},"adminregion":{"id":"","value":""},"incomeLevel":{"id":"NOC","value":"High income: nonOECD"},"lendingType":{"id":"LNX","value":"Not classified"},"capitalCity":"Doha","longitude":"51.5082","latitude":"25.2948"},{"id":"ROU","isoCode":"RO","name":"Romania","region":{"id":"ECS","value":"Europe & Central Asia (all income levels)"},"adminregion":{"id":"ECA","value":"Europe & Central Asia (developing only)"},"incomeLevel":{"id":"UMC","value":"Upper middle income"},"lendingType":{"id":"IBD","value":"IBRD"},"capitalCity":"Bucharest","longitude":"26.0979","latitude":"44.4479"},{"id":"RUS","isoCode":"RU","name":"Russian Federation","region":{"id":"ECS","value":"Europe & Central Asia (all income levels)"},"adminregion":{"id":"","value":""},"incomeLevel":{"id":"NOC","value":"High income: nonOECD"},"lendingType":{"id":"IBD","value":"IBRD"},"capitalCity":"Moscow","longitude":"37.6176","latitude":"55.7558"},{"id":"RWA","isoCode":"RW","name":"Rwanda","region":{"id":"SSF","value":"Sub-Saharan Africa (all income levels)"},"adminregion":{"id":"SSA","value":"Sub-Saharan Africa (developing only)"},"incomeLevel":{"id":"LIC","value":"Low income"},"lendingType":{"id":"IDX","value":"IDA"},"capitalCity":"Kigali","longitude":"30.0587","latitude":"-1.95325"},{"id":"SAS","isoCode":"8S","name":"South Asia","region":{"id":"NA","value":"Aggregates"},"adminregion":{"id":"","value":""},"incomeLevel":{"id":"NA","value":"Aggregates"},"lendingType":{"id":"","value":"Aggregates"},"capitalCity":"","longitude":"","latitude":""},{"id":"SAU","isoCode":"SA","name":"Saudi Arabia","region":{"id":"MEA","value":"Middle East & North Africa (all income levels)"},"adminregion":{"id":"","value":""},"incomeLevel":{"id":"NOC","value":"High income: nonOECD"},"lendingType":{"id":"LNX","value":"Not classified"},"capitalCity":"Riyadh","longitude":"46.6977","latitude":"24.6748"},{"id":"SDN","isoCode":"SD","name":"Sudan","region":{"id":"SSF","value":"Sub-Saharan Africa (all income levels)"},"adminregion":{"id":"SSA","value":"Sub-Saharan Africa (developing only)"},"incomeLevel":{"id":"LMC","value":"Lower middle income"},"lendingType":{"id":"IDX","value":"IDA"},"capitalCity":"Khartoum","longitude":"32.5363","latitude":"15.5932"},{"id":"SEN","isoCode":"SN","name":"Senegal","region":{"id":"SSF","value":"Sub-Saharan Africa (all income levels)"},"adminregion":{"id":"SSA","value":"Sub-Saharan Africa (developing only)"},"incomeLevel":{"id":"LMC","value":"Lower middle income"},"lendingType":{"id":"IDX","value":"IDA"},"capitalCity":"Dakar","longitude":"-17.4734","latitude":"14.7247"},{"id":"SGP","isoCode":"SG","name":"Singapore","region":{"id":"EAS","value":"East Asia & Pacific (all income levels)"},"adminregion":{"id":"","value":""},"incomeLevel":{"id":"NOC","value":"High income: nonOECD"},"lendingType":{"id":"LNX","value":"Not classified"},"capitalCity":"Singapore","longitude":"103.85","latitude":"1.28941"},{"id":"SLB","isoCode":"SB","name":"Solomon Islands","region":{"id":"EAS","value":"East Asia & Pacific (all income levels)"},"adminregion":{"id":"EAP","value":"East Asia & Pacific (developing only)"},"incomeLevel":{"id":"LMC","value":"Lower middle income"},"lendingType":{"id":"IDX","value":"IDA"},"capitalCity":"Honiara","longitude":"159.949","latitude":"-9.42676"},{"id":"SLE","isoCode":"SL","name":"Sierra Leone","region":{"id":"SSF","value":"Sub-Saharan Africa (all income levels)"},"adminregion":{"id":"SSA","value":"Sub-Saharan Africa (developing only)"},"incomeLevel":{"id":"LIC","value":"Low income"},"lendingType":{"id":"IDX","value":"IDA"},"capitalCity":"Freetown","longitude":"-13.2134","latitude":"8.4821"},{"id":"SLV","isoCode":"SV","name":"El Salvador","region":{"id":"LCN","value":"Latin America & Caribbean (all income levels)"},"adminregion":{"id":"LAC","value":"Latin America & Caribbean (developing only)"},"incomeLevel":{"id":"LMC","value":"Lower middle income"},"lendingType":{"id":"IBD","value":"IBRD"},"capitalCity":"San Salvador","longitude":"-89.2073","latitude":"13.7034"},{"id":"SMR","isoCode":"SM","name":"San Marino","region":{"id":"ECS","value":"Europe & Central Asia (all income levels)"},"adminregion":{"id":"","value":""},"incomeLevel":{"id":"NOC","value":"High income: nonOECD"},"lendingType":{"id":"LNX","value":"Not classified"},"capitalCity":"San Marino","longitude":"12.4486","latitude":"43.9322"},{"id":"SOM","isoCode":"SO","name":"Somalia","region":{"id":"SSF","value":"Sub-Saharan Africa (all income levels)"},"adminregion":{"id":"SSA","value":"Sub-Saharan Africa (developing only)"},"incomeLevel":{"id":"LIC","value":"Low income"},"lendingType":{"id":"IDX","value":"IDA"},"capitalCity":"Mogadishu","longitude":"45.3254","latitude":"2.07515"},{"id":"SRB","isoCode":"RS","name":"Serbia","region":{"id":"ECS","value":"Europe & Central Asia (all income levels)"},"adminregion":{"id":"ECA","value":"Europe & Central Asia (developing only)"},"incomeLevel":{"id":"UMC","value":"Upper middle income"},"lendingType":{"id":"IBD","value":"IBRD"},"capitalCity":"Belgrade","longitude":"20.4656","latitude":"44.8024"},{"id":"SSA","isoCode":"ZF","name":"Sub-Saharan Africa (developing only)","region":{"id":"NA","value":"Aggregates"},"adminregion":{"id":"","value":""},"incomeLevel":{"id":"NA","value":"Aggregates"},"lendingType":{"id":"","value":"Aggregates"},"capitalCity":"","longitude":"","latitude":""},{"id":"SSD","isoCode":"SS","name":"South Sudan","region":{"id":"SSF","value":"Sub-Saharan Africa (all income levels)"},"adminregion":{"id":"SSA","value":"Sub-Saharan Africa (developing only)"},"incomeLevel":{"id":"LIC","value":"Low income"},"lendingType":{"id":"IDX","value":"IDA"},"capitalCity":"Juba","longitude":"31.6","latitude":"4.85"},{"id":"SSF","isoCode":"ZG","name":"Sub-Saharan Africa (all income levels)","region":{"id":"NA","value":"Aggregates"},"adminregion":{"id":"","value":""},"incomeLevel":{"id":"NA","value":"Aggregates"},"lendingType":{"id":"","value":"Aggregates"},"capitalCity":"","longitude":"","latitude":""},{"id":"SST","isoCode":"S1","name":"Small states","region":{"id":"NA","value":"Aggregates"},"adminregion":{"id":"","value":""},"incomeLevel":{"id":"NA","value":"Aggregates"},"lendingType":{"id":"","value":"Aggregates"},"capitalCity":"","longitude":"","latitude":""},{"id":"STP","isoCode":"ST","name":"Sao Tome and Principe","region":{"id":"SSF","value":"Sub-Saharan Africa (all income levels)"},"adminregion":{"id":"SSA","value":"Sub-Saharan Africa (developing only)"},"incomeLevel":{"id":"LMC","value":"Lower middle income"},"lendingType":{"id":"IDX","value":"IDA"},"capitalCity":"Sao Tome","longitude":"6.6071","latitude":"0.20618"},{"id":"SUR","isoCode":"SR","name":"Suriname","region":{"id":"LCN","value":"Latin America & Caribbean (all income levels)"},"adminregion":{"id":"LAC","value":"Latin America & Caribbean (developing only)"},"incomeLevel":{"id":"UMC","value":"Upper middle income"},"lendingType":{"id":"IBD","value":"IBRD"},"capitalCity":"Paramaribo","longitude":"-55.1679","latitude":"5.8232"},{"id":"SVK","isoCode":"SK","name":"Slovak Republic","region":{"id":"ECS","value":"Europe & Central Asia (all income levels)"},"adminregion":{"id":"","value":""},"incomeLevel":{"id":"OEC","value":"High income: OECD"},"lendingType":{"id":"LNX","value":"Not classified"},"capitalCity":"Bratislava","longitude":"17.1073","latitude":"48.1484"},{"id":"SVN","isoCode":"SI","name":"Slovenia","region":{"id":"ECS","value":"Europe & Central Asia (all income levels)"},"adminregion":{"id":"","value":""},"incomeLevel":{"id":"OEC","value":"High income: OECD"},"lendingType":{"id":"LNX","value":"Not classified"},"capitalCity":"Ljubljana","longitude":"14.5044","latitude":"46.0546"},{"id":"SWE","isoCode":"SE","name":"Sweden","region":{"id":"ECS","value":"Europe & Central Asia (all income levels)"},"adminregion":{"id":"","value":""},"incomeLevel":{"id":"OEC","value":"High income: OECD"},"lendingType":{"id":"LNX","value":"Not classified"},"capitalCity":"Stockholm","longitude":"18.0645","latitude":"59.3327"},{"id":"SWZ","isoCode":"SZ","name":"Swaziland","region":{"id":"SSF","value":"Sub-Saharan Africa (all income levels)"},"adminregion":{"id":"SSA","value":"Sub-Saharan Africa (developing only)"},"incomeLevel":{"id":"LMC","value":"Lower middle income"},"lendingType":{"id":"IBD","value":"IBRD"},"capitalCity":"Mbabane","longitude":"31.4659","latitude":"-26.5225"},{"id":"SXM","isoCode":"SX","name":"Sint Maarten (Dutch part)","region":{"id":"LCN","value":"Latin America & Caribbean (all income levels)"},"adminregion":{"id":"","value":""},"incomeLevel":{"id":"NOC","value":"High income: nonOECD"},"lendingType":{"id":"LNX","value":"Not classified"},"capitalCity":"Philipsburg","longitude":"","latitude":""},{"id":"SXZ","isoCode":"A4","name":"Sub-Saharan Africa excluding South Africa","region":{"id":"NA","value":"Aggregates"},"adminregion":{"id":"","value":""},"incomeLevel":{"id":"NA","value":"Aggregates"},"lendingType":{"id":"","value":"Aggregates"},"capitalCity":"","longitude":"","latitude":""},{"id":"SYC","isoCode":"SC","name":"Seychelles","region":{"id":"SSF","value":"Sub-Saharan Africa (all income levels)"},"adminregion":{"id":"SSA","value":"Sub-Saharan Africa (developing only)"},"incomeLevel":{"id":"UMC","value":"Upper middle income"},"lendingType":{"id":"IBD","value":"IBRD"},"capitalCity":"Victoria","longitude":"55.4466","latitude":"-4.6309"},{"id":"SYR","isoCode":"SY","name":"Syrian Arab Republic","region":{"id":"MEA","value":"Middle East & North Africa (all income levels)"},"adminregion":{"id":"MNA","value":"Middle East & North Africa (developing only)"},"incomeLevel":{"id":"LMC","value":"Lower middle income"},"lendingType":{"id":"IBD","value":"IBRD"},"capitalCity":"Damascus","longitude":"36.3119","latitude":"33.5146"},{"id":"TCA","isoCode":"TC","name":"Turks and Caicos Islands","region":{"id":"LCN","value":"Latin America & Caribbean (all income levels)"},"adminregion":{"id":"","value":""},"incomeLevel":{"id":"NOC","value":"High income: nonOECD"},"lendingType":{"id":"LNX","value":"Not classified"},"capitalCity":"Grand Turk","longitude":"-71.141389","latitude":"21.4602778"},{"id":"TCD","isoCode":"TD","name":"Chad","region":{"id":"SSF","value":"Sub-Saharan Africa (all income levels)"},"adminregion":{"id":"SSA","value":"Sub-Saharan Africa (developing only)"},"incomeLevel":{"id":"LIC","value":"Low income"},"lendingType":{"id":"IDX","value":"IDA"},"capitalCity":"N'Djamena","longitude":"15.0445","latitude":"12.1048"},{"id":"TGO","isoCode":"TG","name":"Togo","region":{"id":"SSF","value":"Sub-Saharan Africa (all income levels)"},"adminregion":{"id":"SSA","value":"Sub-Saharan Africa (developing only)"},"incomeLevel":{"id":"LIC","value":"Low income"},"lendingType":{"id":"IDX","value":"IDA"},"capitalCity":"Lome","longitude":"1.2255","latitude":"6.1228"},{"id":"THA","isoCode":"TH","name":"Thailand","region":{"id":"EAS","value":"East Asia & Pacific (all income levels)"},"adminregion":{"id":"EAP","value":"East Asia & Pacific (developing only)"},"incomeLevel":{"id":"UMC","value":"Upper middle income"},"lendingType":{"id":"IBD","value":"IBRD"},"capitalCity":"Bangkok","longitude":"100.521","latitude":"13.7308"},{"id":"TJK","isoCode":"TJ","name":"Tajikistan","region":{"id":"ECS","value":"Europe & Central Asia (all income levels)"},"adminregion":{"id":"ECA","value":"Europe & Central Asia (developing only)"},"incomeLevel":{"id":"LIC","value":"Low income"},"lendingType":{"id":"IDX","value":"IDA"},"capitalCity":"Dushanbe","longitude":"68.7864","latitude":"38.5878"},{"id":"TKM","isoCode":"TM","name":"Turkmenistan","region":{"id":"ECS","value":"Europe & Central Asia (all income levels)"},"adminregion":{"id":"ECA","value":"Europe & Central Asia (developing only)"},"incomeLevel":{"id":"UMC","value":"Upper middle income"},"lendingType":{"id":"IBD","value":"IBRD"},"capitalCity":"Ashgabat","longitude":"58.3794","latitude":"37.9509"},{"id":"TLS","isoCode":"TL","name":"Timor-Leste","region":{"id":"EAS","value":"East Asia & Pacific (all income levels)"},"adminregion":{"id":"EAP","value":"East Asia & Pacific (developing only)"},"incomeLevel":{"id":"LMC","value":"Lower middle income"},"lendingType":{"id":"IDB","value":"Blend"},"capitalCity":"Dili","longitude":"125.567","latitude":"-8.56667"},{"id":"TON","isoCode":"TO","name":"Tonga","region":{"id":"EAS","value":"East Asia & Pacific (all income levels)"},"adminregion":{"id":"EAP","value":"East Asia & Pacific (developing only)"},"incomeLevel":{"id":"UMC","value":"Upper middle income"},"lendingType":{"id":"IDX","value":"IDA"},"capitalCity":"Nuku'alofa","longitude":"-175.216","latitude":"-21.136"},{"id":"TTO","isoCode":"TT","name":"Trinidad and Tobago","region":{"id":"LCN","value":"Latin America & Caribbean (all income levels)"},"adminregion":{"id":"","value":""},"incomeLevel":{"id":"NOC","value":"High income: nonOECD"},"lendingType":{"id":"IBD","value":"IBRD"},"capitalCity":"Port-of-Spain","longitude":"-61.4789","latitude":"10.6596"},{"id":"TUN","isoCode":"TN","name":"Tunisia","region":{"id":"MEA","value":"Middle East & North Africa (all income levels)"},"adminregion":{"id":"MNA","value":"Middle East & North Africa (developing only)"},"incomeLevel":{"id":"UMC","value":"Upper middle income"},"lendingType":{"id":"IBD","value":"IBRD"},"capitalCity":"Tunis","longitude":"10.21","latitude":"36.7899"},{"id":"TUR","isoCode":"TR","name":"Turkey","region":{"id":"ECS","value":"Europe & Central Asia (all income levels)"},"adminregion":{"id":"ECA","value":"Europe & Central Asia (developing only)"},"incomeLevel":{"id":"UMC","value":"Upper middle income"},"lendingType":{"id":"IBD","value":"IBRD"},"capitalCity":"Ankara","longitude":"32.3606","latitude":"39.7153"},{"id":"TUV","isoCode":"TV","name":"Tuvalu","region":{"id":"EAS","value":"East Asia & Pacific (all income levels)"},"adminregion":{"id":"EAP","value":"East Asia & Pacific (developing only)"},"incomeLevel":{"id":"UMC","value":"Upper middle income"},"lendingType":{"id":"IDX","value":"IDA"},"capitalCity":"Funafuti","longitude":"179.089567","latitude":"-8.6314877"},{"id":"TZA","isoCode":"TZ","name":"Tanzania","region":{"id":"SSF","value":"Sub-Saharan Africa (all income levels)"},"adminregion":{"id":"SSA","value":"Sub-Saharan Africa (developing only)"},"incomeLevel":{"id":"LIC","value":"Low income"},"lendingType":{"id":"IDX","value":"IDA"},"capitalCity":"Dodoma","longitude":"35.7382","latitude":"-6.17486"},{"id":"UGA","isoCode":"UG","name":"Uganda","region":{"id":"SSF","value":"Sub-Saharan Africa (all income levels)"},"adminregion":{"id":"SSA","value":"Sub-Saharan Africa (developing only)"},"incomeLevel":{"id":"LIC","value":"Low income"},"lendingType":{"id":"IDX","value":"IDA"},"capitalCity":"Kampala","longitude":"32.5729","latitude":"0.314269"},{"id":"UKR","isoCode":"UA","name":"Ukraine","region":{"id":"ECS","value":"Europe & Central Asia (all income levels)"},"adminregion":{"id":"ECA","value":"Europe & Central Asia (developing only)"},"incomeLevel":{"id":"LMC","value":"Lower middle income"},"lendingType":{"id":"IBD","value":"IBRD"},"capitalCity":"Kiev","longitude":"30.5038","latitude":"50.4536"},{"id":"UMC","isoCode":"XT","name":"Upper middle income","region":{"id":"NA","value":"Aggregates"},"adminregion":{"id":"","value":""},"incomeLevel":{"id":"NA","value":"Aggregates"},"lendingType":{"id":"","value":"Aggregates"},"capitalCity":"","longitude":"","latitude":""},{"id":"URY","isoCode":"UY","name":"Uruguay","region":{"id":"LCN","value":"Latin America & Caribbean (all income levels)"},"adminregion":{"id":"","value":""},"incomeLevel":{"id":"NOC","value":"High income: nonOECD"},"lendingType":{"id":"IBD","value":"IBRD"},"capitalCity":"Montevideo","longitude":"-56.0675","latitude":"-34.8941"},{"id":"USA","isoCode":"US","name":"United States","region":{"id":"NAC","value":"North America"},"adminregion":{"id":"","value":""},"incomeLevel":{"id":"OEC","value":"High income: OECD"},"lendingType":{"id":"LNX","value":"Not classified"},"capitalCity":"Washington D.C.","longitude":"-77.032","latitude":"38.8895"},{"id":"UZB","isoCode":"UZ","name":"Uzbekistan","region":{"id":"ECS","value":"Europe & Central Asia (all income levels)"},"adminregion":{"id":"ECA","value":"Europe & Central Asia (developing only)"},"incomeLevel":{"id":"LMC","value":"Lower middle income"},"lendingType":{"id":"IDB","value":"Blend"},"capitalCity":"Tashkent","longitude":"69.269","latitude":"41.3052"},{"id":"VCT","isoCode":"VC","name":"St. Vincent and the Grenadines","region":{"id":"LCN","value":"Latin America & Caribbean (all income levels)"},"adminregion":{"id":"LAC","value":"Latin America & Caribbean (developing only)"},"incomeLevel":{"id":"UMC","value":"Upper middle income"},"lendingType":{"id":"IDB","value":"Blend"},"capitalCity":"Kingstown","longitude":"-61.2653","latitude":"13.2035"},{"id":"VEN","isoCode":"VE","name":"Venezuela, RB","region":{"id":"LCN","value":"Latin America & Caribbean (all income levels)"},"adminregion":{"id":"LAC","value":"Latin America & Caribbean (developing only)"},"incomeLevel":{"id":"UMC","value":"Upper middle income"},"lendingType":{"id":"IBD","value":"IBRD"},"capitalCity":"Caracas","longitude":"-69.8371","latitude":"9.08165"},{"id":"VIR","isoCode":"VI","name":"Virgin Islands (U.S.)","region":{"id":"LCN","value":"Latin America & Caribbean (all income levels)"},"adminregion":{"id":"","value":""},"incomeLevel":{"id":"NOC","value":"High income: nonOECD"},"lendingType":{"id":"LNX","value":"Not classified"},"capitalCity":"Charlotte Amalie","longitude":"-64.8963","latitude":"18.3358"},{"id":"VNM","isoCode":"VN","name":"Vietnam","region":{"id":"EAS","value":"East Asia & Pacific (all income levels)"},"adminregion":{"id":"EAP","value":"East Asia & Pacific (developing only)"},"incomeLevel":{"id":"LMC","value":"Lower middle income"},"lendingType":{"id":"IDB","value":"Blend"},"capitalCity":"Hanoi","longitude":"105.825","latitude":"21.0069"},{"id":"VUT","isoCode":"VU","name":"Vanuatu","region":{"id":"EAS","value":"East Asia & Pacific (all income levels)"},"adminregion":{"id":"EAP","value":"East Asia & Pacific (developing only)"},"incomeLevel":{"id":"LMC","value":"Lower middle income"},"lendingType":{"id":"IDX","value":"IDA"},"capitalCity":"Port-Vila","longitude":"168.321","latitude":"-17.7404"},{"id":"WLD","isoCode":"1W","name":"World","region":{"id":"NA","value":"Aggregates"},"adminregion":{"id":"","value":""},"incomeLevel":{"id":"NA","value":"Aggregates"},"lendingType":{"id":"","value":"Aggregates"},"capitalCity":"","longitude":"","latitude":""},{"id":"WSM","isoCode":"WS","name":"Samoa","region":{"id":"EAS","value":"East Asia & Pacific (all income levels)"},"adminregion":{"id":"EAP","value":"East Asia & Pacific (developing only)"},"incomeLevel":{"id":"LMC","value":"Lower middle income"},"lendingType":{"id":"IDX","value":"IDA"},"capitalCity":"Apia","longitude":"-171.752","latitude":"-13.8314"},{"id":"XZN","isoCode":"A5","name":"Sub-Saharan Africa excluding South Africa and Nigeria","region":{"id":"NA","value":"Aggregates"},"adminregion":{"id":"","value":""},"incomeLevel":{"id":"NA","value":"Aggregates"},"lendingType":{"id":"","value":"Aggregates"},"capitalCity":"","longitude":"","latitude":""},{"id":"YEM","isoCode":"YE","name":"Yemen, Rep.","region":{"id":"MEA","value":"Middle East & North Africa (all income levels)"},"adminregion":{"id":"MNA","value":"Middle East & North Africa (developing only)"},"incomeLevel":{"id":"LMC","value":"Lower middle income"},"lendingType":{"id":"IDX","value":"IDA"},"capitalCity":"Sana'a","longitude":"44.2075","latitude":"15.352"},{"id":"ZAF","isoCode":"ZA","name":"South Africa","region":{"id":"SSF","value":"Sub-Saharan Africa (all income levels)"},"adminregion":{"id":"SSA","value":"Sub-Saharan Africa (developing only)"},"incomeLevel":{"id":"UMC","value":"Upper middle income"},"lendingType":{"id":"IBD","value":"IBRD"},"capitalCity":"Pretoria","longitude":"28.1871","latitude":"-25.746"},{"id":"ZMB","isoCode":"ZM","name":"Zambia","region":{"id":"SSF","value":"Sub-Saharan Africa (all income levels)"},"adminregion":{"id":"SSA","value":"Sub-Saharan Africa (developing only)"},"incomeLevel":{"id":"LMC","value":"Lower middle income"},"lendingType":{"id":"IDX","value":"IDA"},"capitalCity":"Lusaka","longitude":"28.2937","latitude":"-15.3982"},{"id":"ZWE","isoCode":"ZW","name":"Zimbabwe","region":{"id":"SSF","value":"Sub-Saharan Africa (all income levels)"},"adminregion":{"id":"SSA","value":"Sub-Saharan Africa (developing only)"},"incomeLevel":{"id":"LIC","value":"Low income"},"lendingType":{"id":"IDB","value":"Blend"},"capitalCity":"Harare","longitude":"31.0672","latitude":"-17.8312"}]]